Clave,Nombre de la estación,Latitud,Longitud,Altitud,Estado,Municipio,R.H.,Cuenca
CANCA,"Canasayab, Camp.",19.295000000000002,-90.575556000000006,17,Campeche,Champotón,31,Grijalva - Usumacinta
CNDCA,"Candelaria, Camp.",18.183056000000001,-91.046110999999996,50,Campeche,Candelaria,30,Grijalva - Usumacinta
ACACP,"Acala, Chis.",16.552778,-92.804167000000007,393,Chiapas,Acala,30,Alto Grijalva
AQECP,"Aquespala, Chis.",15.783333000000001,-91.911111000000005,675,Chiapas,La Trinitaria,30,Alto Grijalva
BOQCP,"Boquerón, Chis.",16.641943999999999,-93.150000000000006,480,Chiapas,Suchiapa,30,Alto Grijalva
CACCP,"Cacaluta, Chis.",15.35,-92.716667000000001,20,Chiapas,Acacoyagua,23,Costa de Chiapas
CASCP,"Cascajal, Chis.",16.308333000000001,-92.479167000000004,650,Chiapas,Venustiano Carranza,30,Alto Grijalva
CHMCP,"Chicomuselo, Chis.",15.75,-92.283332999999999,710,Chiapas,Chicomuselo,30,Alto Grijalva
DESCP,"Despoblado, Chis.",15.204167,-92.575000000000003,115,Chiapas,Villa Comaltitlán,23,Costa de Chiapas
ELNCP,"El Novillero, Chis.",15.495832999999999,-92.950000000000003,98,Chiapas,Mapastepec,23,Costa de Chiapas
ESCCP,"Escuintla, Chis.",15.316667000000001,-92.666667000000004,110,Chiapas,Escuintla,23,Costa de Chiapas
GRICP,"Grijalva, Chis.",16.975000000000001,-93.125,211,Chiapas,Chicoasén,30,Alto Grijalva
HUICP,"Huixtla, Chis.",15.133333,-92.472222000000002,40,Chiapas,Huixtla,23,Costa de Chiapas
JESCP,"Jesús, Chis.",15.875,-93.474999999999994,90,Chiapas,Tonalá,23,Costa de Chiapas
LACCP,"Lacantún, Chis.",16.580832999999998,-90.702222000000006,905,Chiapas,Ocosingo,30,Usumacinta
LESCP,"La Escalera, Chis.",16.490278,-93.025000000000006,485,Chiapas,Chiapa de Corzo,30,Alto Grijalva
MAPCP,"Mapastepec, Chis.",15.449999999999999,-92.883332999999993,32,Chiapas,Mapastepec,23,Costa de Chiapas
MARCP,"Margaritas, Chis.",15.583333,-93.066666999999995,1512,Chiapas,Pijijiapan,23,Costa de Chiapas
PCOCP,"Puente Concordia, Chis.",15.848611,-91.968056000000004,582,Chiapas,Frontera Comalapa,30,Alto Grijalva
PICCP,"Pichucalco, Chis.",17.511944,-93.113889,114,Chiapas,Pichucalco,30,Bajo Grijalva
PIJCP,"Pijijiapan, Chis.",15.691667000000001,-93.216667000000001,38,Chiapas,Pijijiapan,23,Costa de Chiapas
PLACP,"Platanar, Chis.",17.577777999999999,-93.387500000000003,38,Chiapas,Pichucalco,30,Bajo Grijalva
RCACP,"Rómulo Calzada, Chis.",17.348333,-93.552778000000004,116,Chiapas,Tecpatán,30,Bajo Grijalva
REFCP,"Reforma, Chis.",15.916667,-92.666667000000004,588,Chiapas,La Concordia,30,Alto Grijalva
REVCP,"Revolución Mexicana, Chis.",16.158332999999999,-93.079166999999998,588,Chiapas,Villa Corzo,30,Alto Grijalva
SAACP,"Salto de Agua, Chis.",17.566666999999999,-92.349999999999994,92,Chiapas,Salto de Agua,30,Grijalva - Usumacinta
SAYCP,"Sayula, Chis.",17.425000000000001,-93.383332999999993,228,Chiapas,Ostuacán,30,Bajo Grijalva
SCRCP,"Puente Morelos, Chis.",16.741667,-92.616667000000007,2113,Chiapas,San Cristóbal de las Casas,30,Alto Grijalva
SDICP,"San Diego, Chis.",15.7425,-93.299999999999997,840,Chiapas,Pijijiapan,23,Costa de Chiapas
SDOCP,"Santo Domingo, Chis.",16.452500000000001,-93.056388999999996,500,Chiapas,Chiapa de Corzo,30,Alto Grijalva
SMICP,"San Miguel, Chis.",15.775,-92.239444000000006,710,Chiapas,Frontera Comalapa,30,Alto Grijalva
SUCCP,"Suchiate, Chis.",14.683332999999999,-92.133332999999993,18,Chiapas,Suchiate,23,Costa de Chiapas
TALCP,"Talismán, Chis.",14.966666999999999,-92.147221999999999,148,Chiapas,Tuxtla Chico,23,Costa de Chiapas
TAMCP,"Malpaso II, Chis.",14.99,-92.243333000000007,18,Chiapas,Tapachula,23,Costa de Chiapas
TONCP,"Tonalá, Chis.",16.086943999999999,-93.75,55,Chiapas,Tonalá,23,Costa de Chiapas
TPICP,"Tres Picos, Chis.",15.875,-93.529167000000001,55,Chiapas,Tonalá,23,Costa de Chiapas
YAMCP,"Yamonhó, Chis.",17.116667,-93.330556000000001,325,Chiapas,Tecpatán,30,Alto Grijalva
BTPCH,"Batopilas, Chih.",27.033611000000001,-107.72361100000001,565,Chihuahua,Batopilas de Manuel Gómez Morín,10,Río Fuerte
CL2CH,"Colina hidrométrica, Chih.",27.410278000000002,-105.38166699999999,1245,Chihuahua,San Francisco de Conchos,24,Río Conchos
CNDCH,"Chínipas, Chih.",27.416667,-108.541667,490,Chihuahua,Chínipas,10,Río Fuerte
GPCCH,"Guapoca, Chih.",29.199999999999999,-108.3,1260,Chihuahua,Madera,9,Yaqui - Matapé
GRCCH,"Guerachi, Chih.",26.813056,-107.072778,2430,Chihuahua,Guachochi,10,Río Fuerte
IGNCH,"San Ignacio, Chih.",26.870833000000001,-107.879167,501,Chihuahua,Batopilas de Manuel Gómez Morín,0,Río Fuerte
JMNCH,"Jiménez, Chih.",27.126667000000001,-104.912778,1479,Chihuahua,Jiménez,24,Río Conchos
TBRSI,"San Francisco, Chih.",26.942499999999999,-107.973333,400,Chihuahua,Urique,10,Río Fuerte
TCNCH,"Tecuan, Chih.",27.579167000000002,-105.36666700000001,0,Chihuahua,San Francisco de Conchos,24,Río Conchos
URECH,"Urique, Chih.",27.216667000000001,-107.91249999999999,599,Chihuahua,Urique,10,Río Fuerte
CDLCL,"Candela, Coah.",26.844443999999999,-100.66111100000001,620,Coahuila de Zaragoza,Candela,24,Río Medio Bravo
SBNCL,"Sabinas, Coah.",27.846667,-101.122778,339,Coahuila de Zaragoza,Sabinas,24,Bravo Conchos
CL3CM,"Callejones C.P. M.I., Col.",18.825832999999999,-103.623333,24,Colima,Tecomán,16,Rio Coahuayaná
CLLCM,"Callejones, Col.",18.826388999999999,-103.62611099999999,42,Colima,Tecomán,16,Rio Coahuayaná
DJLCM,"Presa derivadora Jala, Col.",19.111388999999999,-103.884444,200,Colima,Tecomán,16,Río Armería
MADCM,"Cuastecomatan, Col.",19.210277999999999,-103.88583300000001,200,Colima,Tecomán,16,Río Armería
PN2CM,"Canal principal de Peñitas, Col.",18.826111000000001,-103.622778,270,Colima,Comala,16,Río Armería
PNTCM,"Peñitas, Col.",19.327500000000001,-103.8125,457,Colima,Comala,16,Río Armería
TECCM,"Jala Tecuanillo, Col.",19.111388999999999,-103.88416700000001,191,Colima,Tecomán,16,Río Armería
AMLDR,"Agustín Melgar, Dgo.",25.264167,-104.068056,1225,Durango,Nazas,36,Río Nazas
CB2DR,"Caboraca hidrométrica, Dgo.",24.516667000000002,-104.8,2003,Durango,Canatlán,11,San Pedro - Rosa Morada
CFRDR,"Cañón Fernández hidrométrica de Francisco Zarco, Dgo.",25.265277999999999,-103.773611,1200,Durango,Cuencamé,,Río Nazas
FV2DR,"Francisco Villa hidrométrica, Dgo.",24.001667000000001,-103.960278,1961,Durango,Poanas,11,San Pedro - Rosa Morada
GVHDR,"Guadalupe Victoria hidrométrica, Dgo.",23.960277999999999,-104.75194399999999,1982,Durango,Durango,11,San Pedro - Rosa Morada
PALDR,"Palmito hidrométrica de Lázaro Cárdenas, Dgo.",25.614443999999999,-105.00361100000001,1600,Durango,Indé,36,Río Nazas
SACDR,"Salomé Acosta, Dgo.",25.225000000000001,-105.443056,1670,Durango,Santiago Papasquiaro,36,Río Ramos y del Oro
SB2DR,"Santiago Bayacora hidrométrica, Dgo.",23.873332999999999,-104.673889,1900,Durango,Durango,11,San Pedro - Rosa Morada
SRDDR,"Sardinas, Dgo.",26.084444000000001,-105.566667,1639,Durango,San Bernardo,36,Río Ramos y del Oro
TDRDR,"El Tule del Real, Dgo.",24.702221999999999,-106.538056,300,Durango,Tamazula,10,Río Elotla
TMZDR,"Tamazula, Dgo.",24.933333000000001,-106.97499999999999,1580,Durango,Tamazula,10,Rio Culiacán
ACSGJ,"Arroyo los castillos, Gto.",21.199999999999999,-101.666667,1874,Guanajuato,León,12,Medio Lerma
AMCGJ,"Ameche, Gto.",20.553889000000002,-100.5825,1786,Guanajuato,Apaseo el Grande,12,La Laja
ANSGJ,"Arandas, Gto.",20.712778,-101.370833,1740,Guanajuato,Irapuato,12,Medio Lerma
BEGGJ,"La Begoña hidrométrica, Gto.",20.833333,-100.816667,1820,Guanajuato,San Miguel de Allende,12,La Laja
BRAGJ,"Braniff, Gto.",20.050000000000001,-100.666667,1879,Guanajuato,Acámbaro,12,Alto Lerma
CAYGJ,Canal alimentador a Yuriria,20.269722000000002,-101.019722,0,Guanajuato,Salvatierra,,Alto Lerma
CEYGJ,"Canal extracciones Yuriria, Gto.",20.266667000000002,-101.216667,1730,Guanajuato,Jaral del Progreso,12,Alto Lerma
CPLGJ,"Copalillo, Gto.",20.721667,-101.346667,0,Guanajuato,Irapuato,0,Alto Lerma
CSSGJ,"Los Castillos, Gto.",21.191666999999999,-101.666667,1853,Guanajuato,León,,Medio Lerma
CSTGJ,"Los Castillos, Gto.",21.195556,-101.6675,1874,Guanajuato,León,12,Medio Lerma
CYUGJ,"Canal alimentador Yuriria, Gto.",20.216667000000001,-101.13333299999999,1736,Guanajuato,Yuriria,12,Alto Lerma
ECBGJ,"El Cubo, Gto.",20.279722,-100.90000000000001,1775,Guanajuato,Salvatierra,12,Alto Lerma
ECHGJ,"El Chapín, Gto.",20.872222000000001,-101.244444,1775,Guanajuato,Guanajuato,12,Medio Lerma
ECLGJ,"El Colorado, Gto.",20.650556000000002,-101.88249999999999,1738,Guanajuato,Manuel Doblado,,Medio Lerma
JCRGJ,"Jerécuaro, Gto.",20.145555999999999,-100.518333,1931,Guanajuato,Jerécuaro,12,Alto Lerma
LADGJ,"Las Adjuntas, Gto.",20.675277999999999,-101.844167,1802,Guanajuato,Manuel Doblado,12,La Laja
LMTGJ,"Lomo de Toro, Gto.",20.300000000000001,-101,1890,Guanajuato,Salvatierra,12,Alto Lerma
MRKGJ,"Markazuza, Gto.",20.325832999999999,-101.458333,1695,Guanajuato,Valle de Santiago,,Medio Lerma
PDLGJ,"Puente Dolores, Gto.",21.168056,-100.90055599999999,1837,Guanajuato,Dolores Hidalgo Cuna de la Independencia Nacional,12,La Laja
PERGJ,"Pericos, Gto.",20.522500000000001,-101.111389,1722,Guanajuato,Salamanca,12,La Laja
SL2GJ,"Solis, Gto.",20.050000000000001,-100.666667,1879,Guanajuato,Acámbaro,12,Alto Lerma
SLCGJ,"Canal Solis, Gto.",20.052222,-100.671667,1879,Guanajuato,Acámbaro,12,Alto Lerma
SLMGJ,"Salamanca, Gto.",20.565833000000001,-101.199444,1713,Guanajuato,Salamanca,12,Medio Lerma
SLVGJ,"Salvatierra, Gto.",20.216667000000001,-100.88583300000001,1758,Guanajuato,Salvatierra,12,Alto Lerma
TEMGJ,"Temascatío, Gto.",20.600000000000001,-101.3,1840,Guanajuato,Irapuato,12,Alto Lerma
TGRGJ,"Tres Guerras, Gto.",20.515833000000001,-100.775278,1368,Guanajuato,Celaya,12,La Laja
TPCGJ,"Tepalcates, Gto.",20.740278,-101.370833,1770,Guanajuato,Irapuato,0,Alto Lerma
ACEHD,"Arroyo del centro, Hgo.",20.455832999999998,-99.230833000000004,0,Hidalgo,Tecomán,26,Valle de México
ARSHD,"Al Río el Salto, Hgo.",19.937778000000002,-99.283332999999999,0,Hidalgo,Tepeji del Río de Ocampo,26,Valle de México
ATCHD,"Atlapexco, Hgo.",21.019444,-98.348056,156,Hidalgo,Atlapexco,26,Bajo Pánuco
CDCHD,"Canal del centro, Hgo.",20.454167000000002,-99.231110999999999,0,Hidalgo,Ixmiquilpan,26,Valle de México
CDFHD,"Canal de fuerza, Hgo.",20.452777999999999,-99.230833000000004,0,Hidalgo,Ixmiquilpan,26,Valle de México
CL1HD,"Canal de liga 1 Rojo Gómez a Vicente Aguirre, Hgo.",20.366667,-99.322221999999996,0,Hidalgo,Ixmiquilpan,26,Valle de México
CPEHD,"Canal a Presa Endhó, Hgo.",20.132221999999999,-99.351944000000003,0,Hidalgo,Alfajayucan,26,Valle de México
CSTHD,"Canal Salto Tlamaco, Hgo.",20.037500000000001,-99.222778000000005,0,Hidalgo,Tepetitlán,26,Valle de México
CVAHD,"Canal Vicente Aguirre, Hgo.",20.414166999999999,-99.357500000000002,0,Hidalgo,Atitalaquia,26,Valle de México
ORZHD,"San Felipe Orizatlán, Hgo.",21.166667,-98.599999999999994,2370,Hidalgo,San Felipe Orizatlán,26,Bajo Pánuco
RSTHD,"Río Salado Tablón, Hgo.",20.051110999999999,-99.225278000000003,0,Hidalgo,Atitalaquia,26,Valle de México
RTTHD,"Río Tula Tasquillo, Hgo.",20.576388999999999,-99.342777999999996,0,Hidalgo,Tasquillo,26,Valle de México
AJJJL,"Ajojúcar, Jal.",21.599443999999998,-102.436944,1751,Jalisco,Teocaltiche,12,Río Alto Santiago
ATEJL,"Atemajac, Jal.",20.723056,-102.34,0,Jalisco,Arandas,12,Bajo Lerma
ATQJL,"Atequiza, Jal.",20.397221999999999,-103.091944,1528,Jalisco,Chapala,12,Río Alto Santiago
BCSJL,"Bocas, Jal.",22.406110999999999,-103.72444400000001,1743,Jalisco,Mezquitic,12,Rio Bajo Santiago
BLNJL,"Bolaños, Jal.",21.831666999999999,-103.78277799999999,916,Jalisco,Bolaños,12,Rio Bajo Santiago
BOQJL,"La Boquilla, Jal.",21.058333000000001,-103.397222,0,Jalisco,San Cristóbal de la Barranca,0,Río Alto Santiago
CALJL,"Calerita, Jal.",21.436111,-102.578611,1747,Jalisco,Teocaltiche,0,Río Alto Santiago
CIHJL,"Cihuatlán, Jal.",19.233332999999998,-104.566667,13,Jalisco,Cihuatlán,16,Costa de Jalisco
CORJL,"Corona, Jal.",20.404167000000001,-103.083333,1520,Jalisco,Zapotlán del Rey,0,Bajo Lerma
CULJL,"Cuale, Jal.",20.593333000000001,-105.218333,54,Jalisco,Puerto Vallarta,16,Hucicila
CUNJL,"La Cuña, Jal.",21.133333,-102.84999999999999,1700,Jalisco,Yahualica de González Gallo,12,Río Alto Santiago
CXTJL,"Cuixtla, Jal.",21.066666999999999,-103.45,816,Jalisco,San Cristóbal de la Barranca,12,Río Alto Santiago
ELCJL,"El Corcovado, Jal.",19.845832999999999,-104.28527800000001,898,Jalisco,Autlán de Navarro,12,Río Armería
EXPJL,"La Experiencia, Jal.",20.723333,-103.33499999999999,1550,Jalisco,Guadalajara,12,Alto Lerma
HIGJL,"Higuera Blanca 2, Jal.",19.653888999999999,-105.184444,200,Jalisco,Tomatlán,,Costa de Jalisco
LDMJL,"Lagos de Moreno, Jal.",21.359722000000001,-101.91972199999999,1871,Jalisco,Lagos de Moreno,12,Río Alto Santiago
LGLJL,"La Gloria, Jal.",22.068055999999999,-103.396389,1465,Jalisco,Colotlán,12,Alto Lerma
PAMJL,"Puente Ameca, Jal.",20.550000000000001,-104.05,0,Jalisco,Ameca,0,Río Ameca
PDSJL,"Paso del Sabino, Jal.",21.337222000000001,-102.53277799999999,1699,Jalisco,Teocaltiche,12,Alto Lerma
PINJL,"El Pinito, Jal.",22.600000000000001,-103.916667,1858,Jalisco,Huejuquilla el Alto,12,Rio Bajo Santiago
RAMJL,"Río Ameca, Jal.",20.550000000000001,-104.05,1230,Jalisco,Ameca,15,Río Ameca
RSLJL,"Los Rosillos, Jal.",20.758333,-103.9875,0,Jalisco,San Juanito de Escobedo,14,Río Ameca
SAUJL,"La Sauceda, Jal.",21.350000000000001,-101.84999999999999,1940,Jalisco,Lagos de Moreno,12,Río Alto Santiago
SCRJL,"San Cristóbal 2, Jal.",21.038889000000001,-103.42916700000001,0,Jalisco,San Cristóbal de la Barranca,12,Río Alto Santiago
SGRJL,"San Gaspar de los Reyes, Jal.",21.300000000000001,-102.5,1740,Jalisco,Jalostotitlán,12,Río Alto Santiago
SRSJL,"Manuel M. Diéguez, Jal.",20.908888999999999,-103.705556,730,Jalisco,Amatitán,12,Río Alto Santiago
YESJL,"La Yesca, Jal.",21.193055999999999,-104.090278,420,Jalisco,Hostotipaquillo,16,Rio Bajo Santiago
ZAPJL,"Zapotlanejo, Jal.",20.404167000000001,-103.08750000000001,98,Jalisco,Juanacatlán,0,Bajo Lerma
ZPTJL,"El Zapote, Jal.",22.050000000000001,-103.05,1589,Jalisco,El Plateado de Joaquín Amaro,12,Bajo Lerma
ZULJL,"Zula río, Jal.",20.395278000000001,-102.729444,0,Jalisco,Ocotlán,12,Bajo Lerma
ACLMX,"Puente Atlacomulco, Méx.",19.788889000000001,-99.893056000000001,2496,México,Atlacomulco,0,Alto Lerma
ARBMX,"Las Arboledas, Méx.",19.566666999999999,-99.216667000000001,2280,México,Atizapán de Zaragoza,26,Valle de México
ATEMX,"Atenco, Méx.",19.543610999999999,-98.912222,2248,México,Atenco,26,Valle de México
ATOMX,"Atotonilco 2, Méx.",19.452777999999999,-99.776388999999995,2557,México,Almoloya de Juárez,12,Alto Lerma
ATTMX,"Atotonilco, Méx.",19.443611000000001,-99.773611000000002,2570,México,Almoloya de Juárez,0,Alto Lerma
AURMX,"Canal la Aurora, Méx.",19.638055999999999,-99.250556000000003,0,México,Lázaro Cárdenas,26,Valle de México
CALMX,"Calixtlahuaca, Méx.",19.333333,-99.700000000000003,2635,México,Toluca,12,Alto Lerma
CHPMX,"Chapingo, Méx.",19.483332999999998,-98.884721999999996,2250,México,Texcoco,26,Valle de México
ECDMX,"El Conde, Méx",19.465278000000001,-98.869444000000001,0,México,Texcoco,,Valle de México
EMOMX,"El Molinito Río Hondo, Méx.",19.453610999999999,-99.238332999999997,229,México,Naucalpan de Juárez,26,Valle de México
GDLMX,"Sierra de Guadalupe, Méx.",19.635556000000001,-99.252222000000003,2290,México,Cuautitlán Izcalli,26,Valle de México
GRDMX,"La Grande, Méx.",19.578889,-98.917221999999995,2252,México,Tezoyuca,26,Valle de México
IXCMX,"Ixtlahuaca, Méx.",19.567499999999999,-99.769443999999993,2544,México,Ixtlahuaca,12,Alto Lerma
K26MX,"km 0 + 262, Méx.",19.659721999999999,-99.951943999999997,0,México,San Felipe del Progreso,0,Alto Lerma
K27MX,"km 27+250, Méx.",19.633333,-99.049999999999997,2250,México,Ecatepec de Morelos,26,Valle de México
LAYMX,"La Y, Méx.",19.404444000000002,-99.593889000000004,2576,México,Otzolotepec,12,Alto Lerma
LLOMX,"La Loma, Méx.",19.288333000000002,-99.556667000000004,0,México,Toluca,,Alto Lerma
MBLMX,"Molino Blanco, Méx.",19.477778000000001,-99.220832999999999,2326,México,Naucalpan de Juárez,26,Valle de México
MLTMX,"Miltepec, Méx",19.311388999999998,-99.647221999999999,0,México,Toluca,,Alto Lerma
NTQMX,"Nuevo túnel de Tequixquiac, Méx",19.611667000000001,-99.151944,0,México,Tultitlán,,Valle de México
OBSMX,"San Martín Obispo, Méx.",19.616667,-99.193611000000004,2253,México,Cuautitlán Izcalli,26,Valle de México
PCGMX,"Puente Colgante, Méx.",19.743055999999999,-99.181944000000001,2254,México,Teoloyucan,26,Valle de México
PMEMX,"Puente Mextepec, Méx.",19.654444000000002,-99.948888999999994,0,México,San Felipe del Progreso,0,Alto Lerma
PPBMX,"Planta Potabilizadora Madín, Méx.",19.465555999999999,-99.267499999999998,0,México,Naucalpan de Juárez,26,Valle de México
PTCMX,"Puente Carretero, Méx",19.283611000000001,-99.521944000000005,2577,México,San Mateo Atenco,12,Alto Lerma
SADMX,"San Andrés, Méx.",19.530556000000001,-98.911111000000005,2268,México,Texcoco,26,Valle de México
SB2MX,"San Bernabe, Méx",19.465555999999999,-99.703889000000004,2571,México,Temoaya,12,Alto Lerma
SBBMX,"José Antonio Alzate, Méx.",19.465833,-99.704722000000004,2571,México,Temoaya,12,Alto Lerma
SLAMX,"San Luis Ameca, Méx.",19.190277999999999,-98.870833000000005,2279,México,Temamatla,26,Valle de México
SMLMX,"Santa María del Llano, Méx.",19.633333,-99.799999999999997,2618,México,Ixtlahuaca,12,Alto Lerma
SNLMX,"San Lucas, Méx.",19.644722000000002,-98.858610999999996,2240,México,Acolman,26,Valle de México
TBRMX,"Tres Barrancas, Méx.",19.343056000000001,-99.799166999999997,2682,México,Almoloya de Juárez,12,Alto Lerma
TESMX,"Texcaltitlán, Méx.",18.931388999999999,-99.935833000000002,2383,México,Texcaltitlán,12,Medio Balsas
TJCMX,"El Tejocote, Méx.",19.856943999999999,-99.905277999999996,2449,México,Atlacomulco,26,Valle de México
TMCMX,"Temascalcingo, Méx",19.904444000000002,-100.023056,0,México,Temascalcingo,,Alto Lerma
TROMX,"Trojes, Méx.",19.429167,-99.612499999999997,2577,México,Temoaya,12,Medio Balsas
TTLMX,"Totolica hidrométrica, Méx.",19.452500000000001,-99.283056000000002,2325,México,Naucalpan de Juárez,26,Valle de México
TTQMX,"Tajo de Tequixquiac, Méx",19.904722,-99.123889000000005,2229,México,Tequixquiac,2,Valle de México
VDCMX,"Vaso de Cristo, Méx.",19.510278,-99.211667000000006,2263,México,Tlalnepantla de Baz,26,Valle de México
ADJMC,"Adjuntas, Mich.",17.968610999999999,-102.195556,0,Michoacán de Ocampo,Guadalajara,,Bajo Lerma
ADUMC,"Adjuntas, Mich.",20.231389,-101.98999999999999,1630,Michoacán de Ocampo,Numarán,12,Bajo Lerma
ANGMC,"Angamacutiro, Mich. SMN*",20.125556,-101.72277800000001,1949,Michoacán de Ocampo,Angamacutiro,,Medio Lerma
CAMMC,"Camécuaro, Mich.",19.916667,-102.21250000000001,93,Michoacán de Ocampo,Tangancícuaro,0,Bajo Lerma
CBLMC,"Casa Blanca, Mich.",20.324166999999999,-101.461389,1694,Michoacán de Ocampo,José Sixto Verduzco,12,Medio Lerma
CHAMC,"Chaparaco, Mich.",19.973610999999998,-102.265278,159,Michoacán de Ocampo,Zamora,12,Bajo Lerma
CMNMC,"Caimanera, Mich.",18.5,-100.90000000000001,234,Michoacán de Ocampo,Huetamo,18,Medio Balsas
CORMC,"Corrales, Mich.",20.207222000000002,-101.861667,1693,Michoacán de Ocampo,Penjamillo,12,Bajo Lerma
EGIMC,"El Gigante, Mich.",19.966667000000001,-100.45,1961,Michoacán de Ocampo,Maravatío,12,Alto Lerma
ESTMC,"La Estanzuela, Mich.",20.116667,-102.370833,1551,Michoacán de Ocampo,Ixtlán,0,Alto Lerma
LCAMC,"La Calera, Mich.",18.429167,-100.99722199999999,0,Michoacán de Ocampo,Zirándaro,0,Medio Balsas
LPDMC,"La Piedad, Mich.",20.354444000000001,-102.00444400000001,1672,Michoacán de Ocampo,La Piedad,12,Bajo Lerma
LPNMC,"Los Panches, Mich.",18.848610999999998,-102.13333299999999,207,Michoacán de Ocampo,La Huacana,18,Bajo Balsas (Tepalcatepec)
LPSMC,"La Pastoría, Mich.",18.800000000000001,-102.2,221,Michoacán de Ocampo,La Huacana,18,Bajo Balsas (Tepalcatepec)
LPZMC,"Los Pinzanes, Mich.",18.800000000000001,-101.2,199,Michoacán de Ocampo,Huetamo,18,Bajo Balsas (Tepalcatepec)
RCEMC,"Río Celio, Mich.",19.972221999999999,-102.295,1568,Michoacán de Ocampo,Zamora,12,Bajo Lerma
SCRMC,"San Cristóbal, Mich.",20.208333,-102.46472199999999,1561,Michoacán de Ocampo,Vista Hermosa,12,Bajo Lerma
TLAMC,"Río Tlazazalca, Mich.",19.970278,-102.05972199999999,1797,Michoacán de Ocampo,Tlazazalca,12,Bajo Lerma
VJIMC,"Villa Jiménez, Mich.",19.550000000000001,-101.45,1980,Michoacán de Ocampo,Huiramba,12,Alto Lerma
YURMC,"Yurécuaro, Mich.",20.339444,-102.242222,1537,Michoacán de Ocampo,Ayotlán,12,Bajo Lerma
ALUMR,"Alpuyeca, Mor.",18.734722000000001,-99.258055999999996,1041,Morelos,Xochitepec,18,Medio Balsas
AMCMR,"Amacuzac, Mor.",18.596111000000001,-99.376943999999995,911,Morelos,Amacuzac,18,Medio Balsas
CRDMR,"Canal Rodeo, Mor.",18.764444000000001,-99.331943999999993,1088,Morelos,Miacatlán,18,Medio Balsas
CUAMR,"Cuautla, Mor.",18.808610999999999,-98.948888999999994,1303,Morelos,Cuautla,18,Medio Balsas
CXXMR,"Canal Xoxocotla, Mor.",18.734999999999999,-99.258332999999993,1018,Morelos,Xochitepec,18,Bajo Balsas (Tepalcatepec)
ESTMR,"Las Estacas, Mor.",18.725000000000001,-98.112499999999997,1130,Morelos,Tlaltizapán de Zapata,18,Alto Balsas
LCUMR,"La Cuera, Mor.",18.683610999999999,-98.914444000000003,1186,Morelos,Ayala,18,Medio Balsas
PERMR,"Canal Perritos, Mor.",18.784167,-99.315278000000006,1099,Morelos,Miacatlán,18,Medio Balsas
TEMMR,"Temixco, Mor.",18.856943999999999,-99.223611000000005,1265,Morelos,Jiutepec,18,Medio Balsas
TICMR,"Ticumán, Mor.",18.794167000000002,-99.103888999999995,988,Morelos,Tlaltizapán de Zapata,18,Medio Balsas
TTAMR,"Tetlama, Mor.",18.833333,-99.278333000000003,1208,Morelos,Temixco,0,Medio Balsas
XICMR,"Xicatlacotla, Mor.",18.528888999999999,-99.190278000000006,814,Morelos,Tlaquiltenango,18,Medio Balsas
YAHMR,"Yautepec, Mor.",18.899166999999998,-99.050556,1244,Morelos,Yautepec,18,Medio Balsas
ZCTMR,"Observatorio de Zacatepec, Mor.",18.651389000000002,-99.196667000000005,932,Morelos,Zacatepec,18,Medio Balsas
ACANR,"Acaponeta, Nay.",22.489999999999998,-105.354167,52,Nayarit,Acaponeta,11,Presidio San Pedro
CAINR,"El Caimán, Nay.",21.201388999999999,-104.080556,0,Nayarit,La Yesca,12,Rio Bajo Santiago
CAPNR,"Capomal, Nay.",21.831111,-105.1125,13,Nayarit,Santiago Ixcuintla,12,Rio Bajo Santiago
CHPNR,"Chapalagana, Nay.",21.944167,-104.5,320,Nayarit,Del Nayar,12,Rio Bajo Santiago
GAVNR,"Gaviotas, Nay.",20.889721999999999,-105.136667,56,Nayarit,Bahía de Banderas,14,Río Ameca
JMANR,"Jesús María, Nay.",22.250833,-104.516944,960,Nayarit,Del Nayar,12,Rio Bajo Santiago
LESNR,"La Estancia, Nay.",22.558333000000001,-105.341667,90,Nayarit,Acaponeta,12,Presidio San Pedro
MOLNR,"Mololoa, Nay.",21.516110999999999,-104.88972200000001,620,Nayarit,Tepic,12,Rio Bajo Santiago
PAJNR,"Pajaritos, Nay.",22.377777999999999,-105.020833,245,Nayarit,Del Nayar,11,San Pedro - Rosa Morada
ROMNR,"Rosamorada, Nay.",22.119721999999999,-105.21166700000001,30,Nayarit,Rosamorada,12,San Pedro - Rosa Morada
RUINR,"Ruiz, Nay.",21.958333,-105.1425,24,Nayarit,Ruiz,11,San Pedro - Rosa Morada
ADJNL,"Las Adjuntas, N.L.",24.883333,-99.680555999999996,385,Nuevo León,Hualahuises,25,San Fernando
ALDNL,"Los Aldamas, N.L.",26.023610999999999,-99.195832999999993,288,Nuevo León,Doctor Coss,24,Río San Juan
ARNNL,"Arenal, N.L.",25.813889,-98.974999999999994,335,Nuevo León,General Bravo,24,Río San Juan
BOCNL,"La Boca, N.L.",25.425833000000001,-100.145833,515,Nuevo León,Santiago,24,Río San Juan
CABNL,"Cabezones, N.L.",24.989999999999998,-99.743888999999996,480,Nuevo León,Montemorelos,25,San Fernando
CAMNL,"Camacho, N.L.",24.871943999999999,-99.578889000000004,350,Nuevo León,Linares,25,San Fernando
CDFNL,"Ciénega de Flores, N.L.",25.952221999999999,-100.172222,380,Nuevo León,Ciénega de Flores,24,Río San Juan
CDRNL,"Cadereyta, N.L.",25.590278000000001,-99.974999999999994,330,Nuevo León,Cadereyta Jiménez,24,Río San Juan
CPRNL,"José López Portillo, N.L.",24.9375,-99.399721999999997,270,Nuevo León,Linares,25,San Fernando
HERNL,"Los Herrera, N.L.",25.897777999999999,-99.400833000000006,240,Nuevo León,Los Herreras,24,Río San Juan
LERNL,"Las Enramadas, N.L.",25.497222000000001,-99.527221999999995,230,Nuevo León,Los Ramones,24,Río San Juan
MTMNL,"Montemorelos, N.L.",25.174167000000001,-99.833332999999996,375,Nuevo León,Montemorelos,24,Río San Juan
PABNL,"Pablillo, N.L.",24.856943999999999,-99.555555999999996,2100,Nuevo León,Linares,25,San Fernando
PAMNL,"La Pamona, N.L.",24.992778000000001,-99.221666999999997,195,Nuevo León,Linares,24,San Fernando
RDSNL,"Rodríguez, N.L.",27.233332999999998,-100.13333299999999,161,Nuevo León,Anáhuac,24,Río Medio Bravo
TPHNL,"Tepehuaje, N.L.",25.505278000000001,-99.770832999999996,250,Nuevo León,Cadereyta Jiménez,24,Río San Juan
ASTOX,"Astata, Oax.",16.010833000000002,-95.700556000000006,80,Oaxaca,San Pedro Huamelula,0,Costa de Oaxaca
BOQOX,"Boquilla 1, Oax.",16.647221999999999,-95.929167000000007,638,Oaxaca,Santa Ana Tavela,0,Río Tehuantepec
CHIOX,"Chicapa, Oax.",16.583333,-94.816666999999995,40,Oaxaca,Heroica Ciudad de Juchitán de Zaragoza,22,resto de la región
CSPOX,"Cosolapa, Oax.",18.492778000000001,-96.658332999999999,135,Oaxaca,Acatlán de Pérez Figueroa,RH,Río Papaloapan
DPSOX,"Dique Pescaditos, Oax.",18.1525,-96.388889000000006,70,Oaxaca,San Miguel Soyaltepec,28,Río Papaloapan
EMAOX,"El Marqués, Oax.",16.434722000000001,-95.374443999999997,98,Oaxaca,Santa María Jalapa del Marqués,22,resto de la región
IXTOX,"Ixtepec, Oax.",16.583333,-95.099999999999994,69,Oaxaca,Ciudad Ixtepec,22,resto de la región
JACOX,"Jacatepec, Oax.",17.866667,-96.200000000000003,42,Oaxaca,Santa María Jacatepec,28,Río Papaloapan
OSTOX,"Ostuta, Oax.",16.5,-94.400000000000006,45,Oaxaca,Santo Domingo Zanatepec,22,resto de la región
PA2OX,"Papaloapan 2, Oax.",18.166667,-96.083332999999996,0,Oaxaca,San Juan Bautista Tuxtepec,28,Río Papaloapan
PAPOX,"Papaloapan, Oax.",18.166667,-96.083332999999996,14,Oaxaca,Cosamaloapan de Carpio,28,Río Papaloapan
STDOX,"Santo Domingo, Oax.",18.050000000000001,-96.549999999999997,95,Oaxaca,San Felipe Jalapa de Díaz,28,Río Papaloapan
TEQOX,"Tequisistlán, Oax.",16.416667,-95.599999999999994,170,Oaxaca,Magdalena Tequisistlán,22,Río Tehuantepec
TUXOX,"Tuxtepec, Oax.",18.083333,-96.133332999999993,21,Oaxaca,San Juan Bautista Tuxtepec,28,Río Papaloapan
UCFOX,"Usila CFE, Oax.",17.933056000000001,-96.435277999999997,125,Oaxaca,San Felipe Usila,28,Río Papaloapan
ZANOX,"Zanatepec, Oax.",16.4025,-94.216110999999998,35,Oaxaca,San Pedro Tapanatepec,0,Costa de Chiapas
BAIPB,"Buenos Aires CFE, Pue.",19.961389,-97.503332999999998,0,Puebla,Tlatlauquitepec,27,Norte de Veracruz
NARPB,"Naranjastitla, Pue.",18.360278000000001,-96.781389000000004,0,Puebla,San Sebastián Tlacotepec,,Río Papaloapan
STLPB,"Sontalalco CFE, Pue.",19.952777999999999,-97.486389000000003,0,Puebla,Tlatlauquitepec,27,Norte de Veracruz
TYAPB,"Tepeyac, Pue.",18.483611,-96.861389000000003,100,Puebla,San Sebastián Tlacotepec,28,Río Papaloapan
AJTSL,"Las Adjuntas, S.L.P.",21.972221999999999,-98.558333000000005,18,San Luis Potosí,Tamuín,26,Bajo Pánuco
BLMSL,"Ballesmi, S.L.P.",21.748888999999998,-98.955832999999998,44,San Luis Potosí,Ciudad Valles,26,Bajo Pánuco
GANSL,"Gallinas, S.L.P.",21.906943999999999,-99.239444000000006,280,San Luis Potosí,Aquismón,26,Bajo Pánuco
MICSL,"Micos, S.L.P.",22.120000000000001,-99.159443999999993,310,San Luis Potosí,Ciudad Valles,26,Bajo Pánuco
PUJSL,"El Pujal, S.L.P.",21.847221999999999,-98.939722000000003,43,San Luis Potosí,Ciudad Valles,26,Bajo Pánuco
RQTSL,"Requetemu, S.L.P.",21.425000000000001,-98.888610999999997,82,San Luis Potosí,Axtla de Terrazas,26,Río Alto Pánuco
STRSL,"Santa Rosa, S.L.P.",22.02,-99.055833000000007,96,San Luis Potosí,Ciudad Valles,26,Bajo Pánuco
SVTSL,"San Vicente, S.L.P.",21.692778000000001,-98.617221999999998,32,San Luis Potosí,San Vicente Tancuayalab,26,Bajo Pánuco
TBLSL,"Tierra Blanca, S.L.P.",21.246666999999999,-98.857221999999993,155,San Luis Potosí,Tamazunchale,26,Río Alto Pánuco
TMISL,"Observatorio de Tamuín, S.L.P.",22.003610999999999,-98.773332999999994,22,San Luis Potosí,Tamuín,26,Bajo Pánuco
TMTSL,"Temamatla, S.L.P.",21.241111,-98.758888999999996,125,San Luis Potosí,Tamazunchale,26,Río Alto Pánuco
TZBSL,"Tanzabaca, S.L.P.",21.663889000000001,-99.213333000000006,196,San Luis Potosí,Jalpan de Serra,26,Bajo Pánuco
ACTSI,"Acatitán, Sin.",24.047222000000001,-106.654167,15,Sinaloa,San Ignacio,10,Planicie de Sinaloa
AL2SI,"El Varejonal hidrométrica, Sin.",25.090278000000001,-107.38333299999999,111,Sinaloa,Badiraguato,10,Rio Culiacán
BCBSI,"Bacubirito, Sin.",25.816666999999999,-107.916667,280,Sinaloa,Sinaloa,10,Río Sinaloa
BDRSI,"Badiraguato, Sin.",25.333333,-107.53749999999999,280,Sinaloa,Badiraguato,10,Rio Culiacán
CHXSI,"Observatorio de Choix, Sin.",26.736111000000001,-108.329167,350,Sinaloa,Choix,10,Río Fuerte
GB2SI,"El Sabinal hidrométrica, Sin.",26.083333,-108.316667,150,Sinaloa,Sinaloa,10,Río Sinaloa
GD2SI,"Bacurato hidrométrica de Gustavo Díaz Ordaz, Sin.",25.855277999999998,-107.91194400000001,1470,Sinaloa,Sinaloa,10,Río Sinaloa
GGNSI,"Guaguana, Sin.",26.050000000000001,-107.84999999999999,350,Sinaloa,Sinaloa,10,Río Sinaloa
GSVSI,"Guasave, Sin.",25.716667000000001,-108.466667,30,Sinaloa,Guasave,10,Río Sinaloa
GTNSI,"Guatenipa, Sin.",25.344443999999999,-107.22499999999999,290,Sinaloa,Badiraguato,10,Rio Culiacán
IXPSI,"Ixpalino, Sin.",23.955556000000001,-106.595833,300,Sinaloa,San Ignacio,10,Planicie de Sinaloa
JNASI,"Jaina, Sin.",25.899999999999999,-108.01388900000001,200,Sinaloa,Sinaloa,10,Río Sinaloa
LD2SI,"Huites hidrométrica, Sin.",26.904167000000001,-108.34999999999999,168,Sinaloa,Choix,10,Río Fuerte
LDCSI,"Luis Donaldo Colosio, Sin.",26.844722000000001,-108.367778,168,Sinaloa,Choix,10,Río Fuerte
QLTSI,"Quelite, Sin.",23.5625,-106.466667,60,Sinaloa,Mazatlán,10,Planicie de Sinaloa
RAVSI,"Estación Rancho Viejo, Sin.",25.124721999999998,-107.755833,60,Sinaloa,Mocorito,,Río Mocorito
RSRSI,"Rosario, Sin.",22.983332999999998,-105.84999999999999,32,Sinaloa,Rosario,11,Presidio San Pedro
SCRSI,"Santa Cruz, Sin.",24.484722000000001,-106.952778,109,Sinaloa,Cosalá,10,Río Elotla
SJNSI,"San Juan, Sin.",25.486667000000001,-107.8425,144,Sinaloa,Mocorito,10,Rio Culiacán
SN2SI,"Sanalona hidrométrica, Sin.",24.813889,-107.158333,170,Sinaloa,Culiacán,10,Rio Culiacán
TORSI,"Las Tortugas, Sin.",23.088332999999999,-105.84694399999999,54,Sinaloa,Rosario,1,Presidio San Pedro
CCRSO,"Cocoraque, Son.",27.416667,-109.625,100,Sonora,Quiriego,9,Yaqui - Matapé
CJNSO,"El Cajón, Son.",29.472221999999999,-110.736389,390,Sonora,San Miguel de Horcasitas,9,Sonora
CZNSO,"Cazanate, Son.",26.603611000000001,-108.7625,60,Sonora,Alamos,9,Río Fuerte
ECBSO,"El Cubil, Son.",29.199999999999999,-109.233333,350,Sonora,Sahuaripa,9,Yaqui - Matapé
NYNSO,"Sonoyta, Son.",31.866667,-112.84999999999999,350,Sonora,General Plutarco Elías Calles,8,Río Sonoyta
ORGSO,"El Orégano, Son.",29.229721999999999,-110.70611100000001,272,Sonora,Hermosillo,9,Sonora
PDNSO,"Paso Nácori, Son.",29.433333000000001,-109.083333,533,Sonora,Nácori Chico,9,Yaqui - Matapé
PTASO,"Punta de Agua 2, Son.",28.472221999999999,-110.308333,250,Sonora,Guaymas,9,Yaqui - Matapé
PTQSO,"Pitiquito, Son.",30.697778,-112.11666700000001,300,Sonora,Caborca,9,Río Concepción
SBNSO,"San Bernardo, Son.",27.411943999999998,-108.876667,162,Sonora,Alamos,9,Río Mayo
SRSSO,"Santa Rosa 2, Son.",30.394722000000002,-111.445278,537,Sonora,Trincheras,9,Río Concepción
TSOSO,"Tesocoma, Son.",27.658332999999999,-109.21250000000001,320,Sonora,Quiriego,9,Río Mayo
BDCTB,"Boca del Cerro, Tab.",17.433333000000001,-91.483333000000002,100,Tabasco,Tenosique,30,Grijalva - Usumacinta
EMUTB,"Villahermosa Muelle, Tab.",17.98,-92.916667000000004,10,Tabasco,Centro,30,Bajo Grijalva
GABTB,"Gaviotas 2, Tab.",17.966667000000001,-92.916667000000004,-2,Tabasco,Centro,0,Bajo Grijalva
GONTB,"González, Tab.",17.975000000000001,-93,1,Tabasco,Centro,30,Bajo Grijalva
MACTB,"Macuspana, Tab.",17.766667000000002,-92.599999999999994,60,Tabasco,Macuspana,30,Grijalva - Usumacinta
OXOTB,"Oxolotán, Tab.",17.380555999999999,-92.75,100,Tabasco,Tacotalpa,30,Bajo Grijalva
PNVTB,"Pueblo Nuevo, Tab.",17.854167,-92.879166999999995,60,Tabasco,Centro,30,Bajo Grijalva
PUYTB,"Puyacatengo, Tab.",17.566666999999999,-92.9375,72,Tabasco,Teapa,30,Bajo Grijalva
SAMTB,"Samaria, Tab.",17.996943999999999,-93.275555999999995,72,Tabasco,Cunduacán,30,Bajo Grijalva
SPTTB,"San Pedro, Tab.",17.791667,-91.158332999999999,21,Tabasco,Balancán,30,Grijalva - Usumacinta
TAPTB,"Tapijulapa, Tab.",17.456944,-92.778610999999998,60,Tabasco,Tacotalpa,30,Bajo Grijalva
TEATB,"Teapa, Tab.",17.566666999999999,-92.966667000000001,72,Tabasco,Teapa,30,Bajo Grijalva
AHLTP,"Ahualulco, Tamps.",22.986944000000001,-99.145555999999999,82,Tamaulipas,Gómez Farías,26,Río Soto la Marina
BALTP,"Bombas Altamira, Tamps.",22.386111,-97.926944000000006,2,Tamaulipas,Altamira,26,Bajo Pánuco
BRRTP,"El Barretal, Tamps.",24.102499999999999,-99.215000000000003,226,Tamaulipas,Hidalgo,25,Río Soto la Marina
CORTP,"Corona, Tamps.",23.887222000000001,-98.936667,150,Tamaulipas,Güémez,25,Río Soto la Marina
ENNTP,"La Encantada, Tamps.",23.384443999999998,-99.078610999999995,375,Tamaulipas,Llera,26,Bajo Pánuco
LSRTP,"La Servilleta, Tamps.",22.852778000000001,-99.120555999999993,210,Tamaulipas,El Mante,26,Bajo Pánuco
MAGTP,"Magueyes, Tamps.",24.567778000000001,-99.551944000000006,420,Tamaulipas,Mainero,25,Río Soto la Marina
MGSTP,"Magiscatzín Dos, Tamps.",22.795832999999998,-98.705556000000001,40,Tamaulipas,González,26,Bajo Pánuco
PADTP,"Padilla, Tamps.",24.043889,-98.903610999999998,154,Tamaulipas,Padilla,25,Río Soto la Marina
PDMTP,"Paso de Molina, Tamps.",23.726666999999999,-98.745833000000005,122,Tamaulipas,Casas,25,Río Soto la Marina
PVLTP,"Puerto de Valles, Tamps.",24.184443999999999,-99.597778000000005,555,Tamaulipas,Hidalgo,25,Río Soto la Marina
RFRTP,"Río Frío, Tamps.",22.843056000000001,-99.026111,60,Tamaulipas,Xicoténcatl,26,Bajo Pánuco
SBNTP,"Sabinas, Tamps.",23.031389000000001,-99.093056000000004,100,Tamaulipas,Gómez Farías,26,Bajo Pánuco
SGBTP,"San Gabriel, Tamps.",23.085556,-98.787499999999994,140,Tamaulipas,Xicoténcatl,26,Bajo Pánuco
TMOTP,"El Tomaseño, Tamps.",24.251389,-99.436110999999997,413,Tamaulipas,Hidalgo,25,Río Soto la Marina
TMSTP,"Tamesí, Tamps.",22.413611,-98.421943999999996,12,Tamaulipas,González,26,Bajo Pánuco
ARCVC,"Ángel Rosario Cabada, Ver.",18.583333,-95.4375,19,Veracruz de Ignacio de la Llave,Ángel Rosario Cabada,28,Río Papaloapan
CRDVC,"Cardel, Ver.",19.364722,-96.374443999999997,28,Veracruz de Ignacio de la Llave,La Antigua,28,Actopan - La Antigua
CTTVC,"Cuatotolapan, Ver.",18.144444,-95.295833000000002,14,Veracruz de Ignacio de la Llave,Hueyapan de Ocampo,28,Río Papaloapan
ESPVC,"El Espinal, Ver.",20.2575,-97.399167000000006,100,Veracruz de Ignacio de la Llave,Espinal,,Norte de Veracruz
GARVC,"Garro, Ver.",18.270555999999999,-95.556944000000001,20,Veracruz de Ignacio de la Llave,Isla,28,Río Papaloapan
HGOVC,"El Higo, Ver.",21.773610999999999,-98.459166999999994,50,Veracruz de Ignacio de la Llave,El Higo,27,Bajo Pánuco
HLSVC,"Los Hules, Ver.",21.194444000000001,-98.287499999999994,75,Veracruz de Ignacio de la Llave,Chalma,26,Bajo Pánuco
LCEVC,"La Ceibilla, Ver.",18.229721999999999,-95.445278000000002,36,Veracruz de Ignacio de la Llave,Isla,28,Río Papaloapan
MDTVC,"Martínez de la Torre, Ver.",20.067499999999999,-97.048333,50,Veracruz de Ignacio de la Llave,Martínez de la Torre,27,Norte de Veracruz
MINVC,"Minatitlán, Ver.",17.983332999999998,-94.533332999999999,60,Veracruz de Ignacio de la Llave,Minatitlán,29,Coatzacoalcos
OLVVC,"El Olivo, Ver.",21.832222000000002,-98.503889000000001,25,Veracruz de Ignacio de la Llave,Pánuco,26,Bajo Pánuco
PDTVC,"Paso del Toro, Ver.",19.041667,-96.140833000000001,8,Veracruz de Ignacio de la Llave,Medellín de Bravo,27,Actopan - La Antigua
PNCVC,"Pánuco, Ver.",22.059999999999999,-98.176666999999995,10,Veracruz de Ignacio de la Llave,Pánuco,27,Bajo Pánuco
PRCVC,"Poza Rica, Ver.",20.540832999999999,-97.478333000000006,50,Veracruz de Ignacio de la Llave,Poza Rica de Hidalgo,27,Norte de Veracruz
PSNVC,"Platón Sánchez, Ver.",21.297778000000001,-98.356667000000002,80,Veracruz de Ignacio de la Llave,Tantoyuca,26,Bajo Pánuco
SJEVC,"San Juan Evangelista, Ver.",17.883333,-95.133332999999993,29,Veracruz de Ignacio de la Llave,San Juan Evangelista,28,Río Papaloapan
TLCVC,"Tlacotalpan, Ver.",18.600000000000001,-95.650000000000006,5,Veracruz de Ignacio de la Llave,Tlacotalpan,28,Río Papaloapan
TMOVC,"Tierra Morada, Ver.",17.571943999999998,-94.163332999999994,10,Veracruz de Ignacio de la Llave,Las Choapas,29,Coatzacoalcos
TMPVC,"Tempoal, Ver.",21.499721999999998,-98.409443999999993,38,Veracruz de Ignacio de la Llave,Tempoal,26,Bajo Pánuco
TRRVC,"Terrerillos, Ver.",21.039722000000001,-98.153056000000007,106,Veracruz de Ignacio de la Llave,Chicontepec,27,Bajo Pánuco
VAZVC,"Villa Azueta, Ver.",18.074999999999999,-95.700000000000003,14,Veracruz de Ignacio de la Llave,José Azueta,28,Río Papaloapan
ELPZC,"El Platanito, Zac.",22.611388999999999,-104.050833,1030,Zacatecas,Valparaíso,12,Rio Bajo Santiago
LFLZC,"La Florida, Zac.",22.686944,-103.603056,1840,Zacatecas,Valparaíso,12,Rio Bajo Santiago
SFOZC,"San Francisco, Zac.",24.322222,-102.884444,1690,Zacatecas,General Francisco R. Murguía,36,Río Aguanaval
B12210,VERTEDOR POTRERILLOS,22.234722000000001,-102.435278,0,Aguascalientes,Rincón de Romos,12,
B12281,KM. 1 +400 (PRESA JOCOQUE),22.133056,-102.345,1841,Aguascalientes,Pabellón de Arteaga,12,
B12378,PRESA CALLES,22.138332999999999,-102.413889,2020,Aguascalientes,San José de Gracia,12,
B12545,EL NIÁGARA 3,21.779167000000001,-102.375,1810,Aguascalientes,Aguascalientes,12,
B12570,LA CODORNIZ,21.988889,-102.683333,1783,Aguascalientes,Calvillo,12,
B12619,KM. 0 +050,21.991667,-102.681944,1790,Aguascalientes,Calvillo,12,
B12656,EL NIAGARA,21.787500000000001,-102.375,1828,Aguascalientes,Aguascalientes,12,
B12669,MEDIA LUNA,21.793056,-102.806944,1585,Aguascalientes,Calvillo,12,
B12773,KM. 0 +412 (PRESA MEDIA LUNA),21.804444,-102.785556,0,Aguascalientes,Calvillo,12,
B12934,KM. 0 +100 (PRESA 50 ANIVERSARIO),22.188611000000002,-102.466944,2050,Aguascalientes,San José de Gracia,12,
B01002,LA PUERTA,32.543889,-116.67833299999999,480,Baja California,Tecate,,
B01034,EL ALAMAR,32.528333000000003,-116.90055599999999,80,Baja California,Tijuana,1,
B03009,HUERTA VIEJA,26.239999999999998,-112.02638899999999,0,Baja California Sur,Comondú,3,
B06003,SAN BARTOLO,23.716667000000001,-109.88333299999999,395,Baja California Sur,La Paz,6,
B06004,SAN ANTONIO,23.800000000000001,-110.05,375,Baja California Sur,La Paz,6,
B06008,EL CAJONCITO,24.159721999999999,-110.16111100000001,210,Baja California Sur,La Paz,6,
B30181,CANDELARIA,18.183333000000001,-91.066666999999995,50,Campeche,Candelaria,30,
B30199,PALIZADA,18.126389,-92.092500000000001,10,Campeche,Candelaria,30,
B31002,CANASAYAB,19.300000000000001,-90.516666999999998,37,Campeche,Champotón,31,
B23003,CAHUACAN,14.716666999999999,-92.270832999999996,50,Chiapas,Tapachula,23,
B23005,TALISMAN I,14.9625,-92.150000000000006,148,Chiapas,Tuxtla Chico,23,
B23007,SUCHIATE 2,14.683332999999999,-92.133332999999993,80,Chiapas,Suchiate,23,
B23008,HUIXTLA,15.133333,-92.466667000000001,40,Chiapas,Huixtla,23,
B23009,PIJIJIAPAN,15.699999999999999,-93.216667000000001,38,Chiapas,Pijijiapan,23,
B23011,TONALA,16.070833,-93.75,55,Chiapas,Tonalá,23,
B23012,NOVILLERO,15.487500000000001,-92.950000000000003,150,Chiapas,Mapastepec,23,
B23013,JESUS,15.866667,-93.483333000000002,120,Chiapas,Tonalá,23,
B23015,CACALUTA,15.35,-92.716667000000001,80,Chiapas,Acacoyagua,23,
B23016,CINTALAPA,15.308332999999999,-92.733333000000002,108,Chiapas,Cintalapa,23,
B23017,COAPA,15.666667,-93.166667000000004,100,Chiapas,Pijijiapan,23,
B23018,MARGARITAS,16.320833,-91.979167000000004,1512,Chiapas,Pijijiapan,23,
B23019,DESPOBLADO,15.216666999999999,-92.566666999999995,115,Chiapas,Villa Comaltitlán,23,
B23020,HUEHUETAN,15,-92.416667000000004,65,Chiapas,Huehuetán,23,
B23022,SAN NICOLAS,15.449999999999999,-92.895832999999996,150,Chiapas,Mapastepec,23,
B23023,TALISMAN 2,14.883333,-92.141666999999998,350,Chiapas,Tuxtla Chico,23,
B23034,TALISMAN 3,14.958888999999999,-92.168056000000007,350,Chiapas,Huehuetán,23,
B23036,TRES PICOS,15.876111,-93.470832999999999,55,Chiapas,Tonalá,23,
B23047,ARRIAGA,16.241111,-93.897499999999994,64,Chiapas,Arriaga,23,
B30004,EL DORADO,17.899999999999999,-93.349999999999994,400,Chiapas,Escuintla,23,
B30014,PUENTE COLGANTE,16.741667,-93.033332999999999,418,Chiapas,Chiapa de Corzo,30,
B30015,LAS PEÑITAS,17.408332999999999,-93.450000000000003,56,Chiapas,Tila,30,
B30020,EL BOQUERÓN 2,16.504166999999999,-93.150000000000006,500,Chiapas,Suchiapa,30,
B30036,EL BURRERO,16.816666999999999,-92.883332999999993,1230,Chiapas,Ixtapa,30,
B30039,LA MESILLA,16.183333000000001,-92.299999999999997,560,Chiapas,Tzimol,30,
B30041,LA ESCALERA,16.533332999999999,-92.950000000000003,450,Chiapas,Chiapa de Corzo,30,
B30042,SALTO DE AGUA,17.566666999999999,-92.349999999999994,22,Chiapas,Salto de Agua,30,
B30057,PICHUCALCO,17.558333000000001,-93.108333000000002,21,Chiapas,Pichucalco,30,
B30058,PUENTE MORELOS,16.719443999999999,-92.650000000000006,2113,Chiapas,San Cristóbal de las Casas,30,
B30061,LA UNION,16.166667,-92.299999999999997,580,Chiapas,Cintalapa,30,
B30070,SAYULA,17.425000000000001,-93.383332999999993,228,Chiapas,Ostuacán,30,
B30071,SANTA MARIA,16.949999999999999,-93.766666999999998,220,Chiapas,Larráinzar,30,
B30072,LAS FLORES 2,16.699999999999999,-93.549999999999997,480,Chiapas,Jiquipilas,30,
B30076,MALPASO 2,17.183333000000001,-93.583332999999996,192,Chiapas,Mezcalapa,30,
B30089,PUENTE COLGANTE 2,16.766667000000002,-93.049999999999997,418,Chiapas,Chiapa de Corzo,30,
B30091,SAN FRANCISCO 2,16.083333,-92.791667000000004,540,Chiapas,La Concordia,30,
B30094,PLATANAR,17.577777999999999,-93.387500000000003,38,Chiapas,Pichucalco,30,
B30097,AGUA VERDE,16.591667000000001,-90.683333000000005,0,Chiapas,Benemérito de las Américas,30,
B30098,GRIJALVA,16.966667000000001,-93.116667000000007,210,Chiapas,Chicoasén,30,
B30102,AQUESPALA,15.783333000000001,-91.916667000000004,675,Chiapas,La Trinitaria,30,
B30107,EL CEDRO,16.483332999999998,-90.400000000000006,400,Chiapas,Benemérito de las Américas,30,
B30113,IXCAN,16.100000000000001,-91.083332999999996,299,Chiapas,Ocosingo,30,
B30119,YAMONHO,17.116667,-93.333332999999996,325,Chiapas,Tecpatán,30,
B30120,CHAJUL,16.083333,-90.950000000000003,299,Chiapas,Marqués de Comillas,30,
B30128,LA ANGOSTURA,16.445833,-92.758332999999993,520,Chiapas,Venustiano Carranza,30,
B30129,CHICOASEN,16.966667000000001,-93.099999999999994,710,Chiapas,Osumacinta,30,
B30130,PLAN DE AYALA,16.833333,-92.945832999999993,0,Chiapas,Ixtapa,30,
B30135,ALMANDRO,17.183333000000001,-92.662499999999994,242,Chiapas,Huitiupán,30,
B30137,ALTAMIRANO,16.716667000000001,-92.020832999999996,1240,Chiapas,Altamirano,30,
B30141,LIVINGSTONE,16.579167000000002,-91.683333000000005,0,Chiapas,Altamirano,30,
B30143,SANTA ELENA,16.149999999999999,-91.5,728,Chiapas,Las Margaritas,30,
B30147,EL JABALI,16.147221999999999,-91.377222000000003,0,Chiapas,Las Margaritas,30,
B30149,EUSEBA,16.266667000000002,-91.374167,0,Chiapas,Las Margaritas,30,
B30150,LA CATARATA,16.226666999999999,-91.308333000000005,0,Chiapas,Maravilla Tenejapa,30,
B30151,SAN QUINTIN,16.412500000000001,-91.358333000000002,1512,Chiapas,Ocosingo,30,
B30157,PASO DEL CAYUCO,17.262499999999999,-92.150000000000006,0,Chiapas,Tumbalá,30,
B30158,PUENTE CONCORDIA,15.841666999999999,-91.966667000000001,582,Chiapas,Frontera Comalapa,30,
B30161,EL CARMEN,16.816666999999999,-92.166667000000004,1278,Chiapas,Ocosingo,30,
B30177,EL COLORADO,16.133333,-91.141666999999998,0,Chiapas,Maravilla Tenejapa,30,
B30184,CHICOMUSELO,15.751666999999999,-92.273332999999994,550,Chiapas,Chicomuselo,30,
B30185,EL BRILLANTE,16.162777999999999,-93.076389000000006,540,Chiapas,Tonalá,30,
B30187,CASCAJAL,16.308889000000001,-92.485833,650,Chiapas,Venustiano Carranza,30,
B30188,PUENTE INI,16.744444000000001,-92.641666999999998,2080,Chiapas,San Cristóbal de las Casas,30,
B30195,JALTENANGO,15.870832999999999,-92.723889,620,Chiapas,Angel Albino Corzo,30,
B30196,EL LIMON,15.873611,-92.729167000000004,615,Chiapas,Angel Albino Corzo,30,
B30210,ACALA,16.552778,-92.804167000000007,393,Chiapas,Acala,30,
B09011,LA JUNTA,28.758333,-107.983333,2053,Chihuahua,Temósachic,9,
B10063,BATOPILAS,27.022221999999999,-107.7375,565,Chihuahua,Batopilas de Manuel Gómez Morín,10,
B10064,CHINIPAS,27.416667,-108.541667,490,Chihuahua,Chínipas,10,
B10094,SAN IGNACIO,26.870833000000001,-107.879167,355,Chihuahua,Batopilas de Manuel Gómez Morín,10,
B10100,URIQUE 2,27.302778,-107.83888899999999,599,Chihuahua,Urique,10,
B10102,GUERACHIC,26.813056,-107.072778,2430,Chihuahua,Guachochi,10,
B10104,SIQUIRICHIC,27.283332999999999,-107.220833,2100,Chihuahua,Guachochi,10,
B10110,TOAHAYANA,26.170832999999998,-107.704167,1400,Chihuahua,Guadalupe y Calvo,10,
B24077,COLINA,27.577500000000001,-105.371667,1214,Chihuahua,San Francisco de Conchos,24,
B24213,TECUAN,27.579167000000002,-105.36666700000001,0,Chihuahua,San Francisco de Conchos,24,
B24215,"San Ambrosio, Chih.",27.579167000000002,-105.36666700000001,0,Chihuahua,San Francisco de Conchos,24,Río Conchos
B24215,SAN AMBROSIO,27.579167000000002,-105.36666700000001,0,Chihuahua,San Francisco de Conchos,24,
B24216,FILTRACIONES PRESA LA BOQUILLA,27.550000000000001,-105.40000000000001,1323,Chihuahua,San Francisco de Conchos,24,
B24226,LAS BURRAS,28.545832999999998,-105.422222,1093,Chihuahua,Julimes,24,
B24339,EL GRANERO,28.958333,-105.29305600000001,1055,Chihuahua,Aldama,24,
B24346,PARRAL,26.916667,-105.73055600000001,1776,Chihuahua,Hidalgo del Parral,24,
B34004,CASAS GRANDES,30.375,-107.933333,1473,Chihuahua,Casas Grandes,34,
B34008,LA TRASQUILA,29.733332999999998,-107.075,1441,Chihuahua,Buenaventura,34,
B18395,COYOL,18.210000000000001,-100.740278,0,Ciudad de México,Gustavo A. Madero,18,
B26181,DESVIACION ALTA PEDREGAL,19.300000000000001,-99.204999999999998,0,Ciudad de México,Tlalpan,26,
B24026,SABINAS COAHUILA,27.841667000000001,-101.120833,340,Coahuila de Zaragoza,Sabinas,24,
B24150,PROGRESO,27.425000000000001,-100.983333,360,Coahuila de Zaragoza,Saltillo,24,
B24285,RIO BRAVO EN PIEDRAS NEGRAS COAHUILA Y EAGLE PASS TEXAS,28.666667,-100.516667,0,Coahuila de Zaragoza,Piedras Negras,,
B24299,ZAPATA,29,-101.90000000000001,0,Coahuila de Zaragoza,Zaragoza,,
B24377,CANDELA,26.843889000000001,-100.647778,0,Coahuila de Zaragoza,Candela,24,
B36003,COYOTE,25.541667,-103.466667,1140,Coahuila de Zaragoza,Torreón,36,
B36039,LA FLOR,25.091667000000001,-103.325,1300,Coahuila de Zaragoza,Torreón,36,
B15005,CUIXMALA,19.391667000000002,-104.966667,380,Colima,Manzanillo,15,
B15012,EL CARMESI,19.608332999999998,-104.52500000000001,125,Colima,Manzanillo,15,
B15014,HIGUERA BLANCA 2,19.660833,-105.16249999999999,30,Colima,Manzanillo,15,
B15017,MANUEL AVILA CAMACHO,19.311388999999998,-104.25916700000001,320,Colima,Manzanillo,15,
B16004,COLIMAN,18.951388999999999,-103.94499999999999,24,Colima,Tecomán,16,
B16013,QUITO I,19.197222,-104.335278,412,Colima,Manzanillo,16,
B16018,TACOTAN,20.033332999999999,-104.316667,660,Colima,Comala,16,
B16021,SAN GREGORIO,19.833333,-103.34999999999999,360,Colima,Tecomán,16,
B16022,CALLEJONES,18.800000000000001,-103.625,24,Colima,Tecomán,16,
B16026,EL GRULLO,19.850000000000001,-104.316667,800,Colima,Manzanillo,16,
B16029,TACOTÁN 2,20.024999999999999,-104.325,450,Colima,Comala,16,
B16032,COLIMAN,18.941666999999999,-103.941667,30,Colima,Tecomán,16,
B16034,PEÑITAS,19.316666999999999,-103.816667,450,Colima,Villa de Álvarez,16,
B16035,CALLEJONES,18.800000000000001,-103.625,480,Colima,Cuauhtémoc,16,
B16036,LAS PEÑITAS 2,19.324999999999999,-103.825,450,Colima,Comala,16,
B16038,MADRID,19.126944000000002,-103.884722,200,Colima,Coquimatlán,16,
B10087,TAMAZULA,24.933333000000001,-106.97499999999999,1580,Durango,Tamazula,10,
B10113,LA HUERTA,25.369444000000001,-106.7,1600,Durango,Topia,10,
B11008,SAN FELIPE,24,-104.598889,0,Durango,Durango,11,
B11027,EL SALTITO,23.976666999999999,-104.30166699999999,2538,Durango,Pueblo Nuevo,11,
B11029,CANATLAN,24.513888999999999,-104.783333,1950,Durango,Canatlán,11,
B11040,VICENTE GUERRERO,23.746666999999999,-103.97027799999999,1913,Durango,Vicente Guerrero,11,
B35003,AGUA PUERCA,26.236667000000001,-104.483333,1400,Durango,Mapimí,35,
B36012,SAN JUAN DE GUADALUPE,24.633333,-102.791667,1700,Durango,San Juan de Guadalupe,36,
B36040,LA FLOR,25.091667000000001,-103.325,1270,Durango,General Simón Bolívar,36,
B36044,EL PALMITO 2,25.600000000000001,-105.02500000000001,1600,Durango,Indé,36,
B36067,CAÑON FERNANDEZ 2,25.283332999999999,-103.77500000000001,1200,Durango,Cuencamé,36,
B36071,SARDINAS,26.083333,-105.56999999999999,1639,Durango,San Bernardo,36,
B36074,J. SALOME ACOSTA,25.508333,-103.541667,1670,Durango,Santiago Papasquiaro,36,
B36076,AGUSTIN MELGAR,25.264167,-104.068056,1225,Durango,Nazas,36,
B36090,LOS NARANJOS,24.625,-103.305556,1650,Durango,General Simón Bolívar,36,
B12007,SALAMANCA,20.383333,-101.166667,1721,Guanajuato,Salamanca,12,
B12022,REFORMA NUMERO 1,20.191666999999999,-100.88333299999999,1761,Guanajuato,Santiago Maravatío,12,
B12067,EMENGUARO,20.170832999999998,-100.875,1765,Guanajuato,Salvatierra,12,
B12104,ACAMBARO,20.050000000000001,-100.733333,1850,Guanajuato,Acámbaro,12,
B12238,PERICOS,20.524999999999999,-101.108333,1722,Guanajuato,Salamanca,12,
B12349,SOLIS,20.050000000000001,-100.666667,1884,Guanajuato,Acámbaro,12,
B12350,LA BEGOÑA 2,20.845832999999999,-100.829167,1836,Guanajuato,San Miguel de Allende,12,
B12352,SALAMANCA 2,20.566666999999999,-101.2,1723,Guanajuato,Salamanca,12,
B12376,SALVATIERRA,20.216667000000001,-100.904167,1740,Guanajuato,Salvatierra,12,
B12391,LAS ADJUNTAS,20.679167,-101.854167,1741,Guanajuato,Manuel Doblado,12,
B12394,SANTA JULIA,20.395833,-101.02500000000001,1723,Guanajuato,Jaral del Progreso,12,
B12418,LOS CASTILLOS,21.175000000000001,-101.67916700000001,1874,Guanajuato,León,12,
B12424,PUERTA DEL MONTE,20.264444000000001,-101.033889,1742,Guanajuato,Jaral del Progreso,12,
B12466,JERECUARO,20.141667000000002,-100.522222,1931,Guanajuato,Jerécuaro,12,
B12477,JARAL,20.341667000000001,-101.058333,1726,Guanajuato,Cortázar,12,
B12486,CAPITIRO,20.287500000000001,-101.020833,1734,Guanajuato,Jaral del Progreso,12,
B12493,CASTILLOS,21.191666999999999,-101.666667,1874,Guanajuato,León,12,
B12512,SILAO,20.958333,-101.441667,1782,Guanajuato,Silao de la Victoria,12,
B12535,CINCO SEÑORES,20.958333,-100.916667,1808,Guanajuato,San Miguel de Allende,12,
B12611,HACIENDA DE SANCHEZ,20.220832999999999,-100.90000000000001,1768,Guanajuato,Salvatierra,12,
B12627,PASARELA SOLIS,20.050000000000001,-100.666667,1888,Guanajuato,Acámbaro,12,
B12674,LA TRINIDAD,20.666667,-101.3125,1732,Guanajuato,Irapuato,12,
B12715,PUENTE DOLORES,21.166944000000001,-100.899722,1837,Guanajuato,Dolores Hidalgo Cuna de la Independencia Nacional,12,
B12717,EL CHAPIN,20.871389000000001,-101.235556,1860,Guanajuato,Guanajuato,12,
B12718,AMECHE,20.558333000000001,-100.58750000000001,1786,Guanajuato,Apaseo el Grande,12,
B12719,TRES GUERRAS,20.520833,-100.772222,0,Guanajuato,Celaya,12,
B12720,SAN NICOLÁS 3,20.202221999999999,-100.889444,1758,Guanajuato,Salvatierra,12,
B12728,TEPALCATES,20.740278,-101.370833,1770,Guanajuato,Irapuato,12,
B12759,EL CUBO,20.280277999999999,-100.899444,1740,Guanajuato,Salvatierra,12,
B12908,ARANDAS,20.712499999999999,-101.370833,1740,Guanajuato,Irapuato,12,
B12930,EL BARRIAL,21.050000000000001,-101.833333,2043,Guanajuato,San Francisco del Rincón,12,
B18311,EL GALLO,18.6875,-100.680556,0,Guerrero,Cutzamala de Pinzón,18,
B18329,PINZAN MORADO,18.160556,-100.8875,0,Guerrero,Coyuca de Catalán,18,
B18375,LA CALERA,18.429167,-100.99722199999999,0,Guerrero,Zirándaro,18,
B18436,ATENANGO DEL RIO,18.112500000000001,-99.108333000000002,0,Guerrero,Atenango del Río,18,
B18439,SAN JUAN TETELCINGO,17.916667,-99.520832999999996,0,Guerrero,Mártir de Cuilapan,18,
B18440,PAPALUTLA,18.016667000000002,-98.900000000000006,0,Guerrero,Copalillo,18,
B18581,HUITZUCO,18.302222,-99.332778000000005,975,Guerrero,Huitzuco de los Figueroa,18,
B18584,ANDRES FIGUEROA,18.073333000000002,-100.51138899999999,0,Guerrero,Ajuchitlán del Progreso,18,
B19002,COYUCA DE BENITEZ,17.004166999999999,-100.095833,0,Guerrero,Coyuca de Benítez,19,
B19003,COYUQUILLA,17.375,-101.058333,65,Guerrero,Petatlán,19,
B19006,SAN LUIS,17.270833,-100.891667,0,Guerrero,Petatlán,19,
B19008,KM. 21 +000,16.941666999999999,-99.793056000000007,0,Guerrero,Acapulco de Juárez,19,
B19009,PETATLAN,17.536110999999998,-101.283333,0,Guerrero,Petatlán,19,
B19013,SAN JERONIMO,17.141667000000002,-100.466667,20,Guerrero,Benito Juárez,19,
B19014,SAN JERONIMITO,17.558333000000001,-101.341667,20,Guerrero,Petatlán,19,
B19016,LA UNION,17.991667,-101.82083299999999,60,Guerrero,La Unión de Isidoro Montes de Oca,19,
B20022,SAN CRISTOBAL,17.279167000000001,-99.941666999999995,900,Guerrero,Chilpancingo de los Bravo,20,
B20024,EL TOMATAL 2 Y 3,16.494167000000001,-98.112499999999997,80,Guerrero,Cuajinicuilapa,20,
B20049,PRESA REVOLUCION MEXICANA,16.800000000000001,-99.200000000000003,0,Guerrero,Tecoanapa,20,
B18380,LA LAGUNA,17.383333,-98.029167000000001,2050,Hidalgo,Acaxochitlán,27,
B26137,IXMIQUILPAN A,20.462499999999999,-99.226388999999998,1700,Hidalgo,Ixmiquilpan,26,
B26282,EL ALAMO,20.512499999999999,-98.625,1380,Hidalgo,San Agustín Metzquititlán,26,
B26294,EL ALAMO,20.512499999999999,-98.625,1380,Hidalgo,San Agustín Metzquititlán,26,
B26295,EL ALAMO,20.512499999999999,-98.625,1380,Hidalgo,San Agustín Metzquititlán,26,
B26406,IXMIQUILPAN 2,20.481943999999999,-99.220832999999999,1700,Hidalgo,Ixmiquilpan,26,
B26461,SAN FELIPE ORIZATLAN,21.166667,-98.599999999999994,2370,Hidalgo,San Felipe Orizatlán,26,
B26464,ATLAPEXCO,21.016667000000002,-98.333332999999996,0,Hidalgo,Atlapexco,26,
B26470,SAN FELIPE ORIZATLAN,21.173888999999999,-98.600555999999997,160,Hidalgo,San Felipe Orizatlán,26,
B26807,TULANCINGO,20.083333,-98.369444000000001,2222,Hidalgo,Tulancingo de Bravo,26,
B37012,TULA,23.001389,-99.712500000000006,0,Hidalgo,Tula de Allende,26,
B12128,CORONA,20.404167000000001,-103.083333,1521,Jalisco,Chapala,12,
B12278,ATOYAC,20.016667000000002,-103.483333,1373,Jalisco,Atoyac,12,
B12280,TUNEL NUMERO 2,22.234722000000001,-102.442778,2094,Jalisco,Jalostotitlán,12,
B12288,ZAPOTLANEJO,20.404167000000001,-103.08750000000001,1521,Jalisco,Chapala,12,
B12358,AJOJUCAR,21.541667,-102.44027800000001,1751,Jalisco,Teocaltiche,12,
B12359,EL SALTO,20.526389000000002,-103.168611,0,Jalisco,Mexticacán,12,
B12370,SAN GASPAR,21.284721999999999,-102.49722199999999,1740,Jalisco,Jalostotitlán,12,
B12382,PASO DEL SABINO,21.316666999999999,-102.538889,1699,Jalisco,Teocaltiche,12,
B12422,CUARENTA 2,21.488889,-101.75277800000001,1998,Jalisco,Lagos de Moreno,12,
B12428,BOLAÑOS,21.824999999999999,-103.783333,916,Jalisco,Bolaños,12,
B12438,LA YESCA,21.193055999999999,-104.090278,420,Jalisco,Tequila,12,
B12441,LA BOQUILLA,21.058333000000001,-103.397222,0,Jalisco,San Cristóbal de la Barranca,12,
B12454,LAGOS,21.362500000000001,-101.913889,1942,Jalisco,Lagos de Moreno,12,
B12469,CUIXTLA,21.051389,-103.441667,816,Jalisco,San Cristóbal de la Barranca,12,
B12476,KM. 0 +340,21.481943999999999,-101.74166700000001,0,Jalisco,Lagos de Moreno,12,
B12485,EL ZAPOTE,22.065556000000001,-103.398611,1458,Jalisco,Totatiche,12,
B12489,TEOCALTICHE,21.441666999999999,-102.58,0,Jalisco,Teocaltiche,12,
B12504,LA CUÑA,21.004166999999999,-102.833056,1700,Jalisco,Yahualica de González Gallo,12,
B12521,SANTA ROSA 2,20.922222000000001,-103.726389,740,Jalisco,Amatitán,12,
B12532,SAN CRISTOBAL 2,21.038889000000001,-103.42916700000001,816,Jalisco,San Cristóbal de la Barranca,12,
B12541,LA RED,20.719443999999999,-102.79861099999999,1758,Jalisco,Acatic,12,
B12557,CUQUIO,20.973610999999998,-103.033333,1799,Jalisco,Cuquío,12,
B12572,LA EXPERIENCIA,20.730556,-103.33194399999999,1550,Jalisco,Guadalajara,12,
B12573,LA EXPERIENCIA,20.729167,-103.329167,1580,Jalisco,Guadalajara,12,
B12579,EL PINITO,22.608889000000001,-103.94194400000001,1858,Jalisco,Huejuquilla el Alto,12,
B12585,CALERITA,21.475000000000001,-102.593056,0,Jalisco,Teocaltiche,12,
B12589,HUASCATO,20.483332999999998,-102.254167,1619,Jalisco,Jesús María,12,
B12628,LA BOQUILLA,21.058333000000001,-103.397222,0,Jalisco,San Cristóbal de la Barranca,12,
B12711,EL MEZQUITE,20.34,-102.24638899999999,0,Jalisco,Ayotlán,12,
B12730,ATEQUIZA,20.404167000000001,-103.08750000000001,1528,Jalisco,Chapala,12,
B12749,ATEQUIZA 2,20.398333000000001,-103.094444,1521,Jalisco,Chapala,12,
B12764,ATEMAJAC,20.723056,-102.34,2350,Jalisco,Guadalajara,12,
B12765,SAN ANDRES,20.715,-103.281667,0,Jalisco,Guadalajara,12,
B12767,LA SAUCEDA,21.351389000000001,-101.851111,1940,Jalisco,Lagos de Moreno,12,
B12774,AHUETITA,21.398610999999999,-103.647778,1711,Jalisco,Tequila,12,
B12778,TENZOMPA,22.376111000000002,-103.92444399999999,1700,Jalisco,Huejuquilla el Alto,12,
B12781,PRESA MOCHA,21.449999999999999,-101.683333,0,Jalisco,Lagos de Moreno,12,
B12791,BOCAS,22.416667,-103.72583299999999,1743,Jalisco,Mezquitic,12,
B12929,EL BARRIAL,21.050000000000001,-101.983333,1736,Jalisco,Unión de San Antonio,12,
B12937,ZULA,20.399722000000001,-102.716667,0,Jalisco,Ocotlán,12,
B12938,MALTARAÑA,20.300000000000001,-102.666667,0,Jalisco,Jamay,12,
B12939,EL PURGATORIO,20.800000000000001,-103.25,0,Jalisco,Ixtlahuacán del Río,12,
B12943,KM. 0+710 (EXTRACCIONES),19.608332999999998,-104.52500000000001,490,Jalisco,Casimiro Castillo,12,
B13004,EL CUALE,20.596388999999999,-105.219722,0,Jalisco,Puerto Vallarta,13,
B14005,PALO VERDE,20.766389,-103.95,0,Jalisco,Etzatlán,14,
B14008,LA DESEMBOCADA,20.733332999999998,-105.158333,250,Jalisco,Puerto Vallarta,14,
B14009,LA VEGA,20.583333,-103.86666700000001,0,Jalisco,Mixtlán,14,
B14010,PUENTE AMECA,20.550000000000001,-104.05,0,Jalisco,Ameca,14,
B14011,PUENTE FF. CC. 2,20.591667000000001,-103.858333,500,Jalisco,La Huerta,14,
B14013,CORRINCHIS,20.475000000000001,-104.77500000000001,0,Jalisco,Atemajac de Brizuela,14,
B14015,LA VEGA,20.591667000000001,-103.84999999999999,0,Jalisco,Tala,14,
B14016,LA VEGA,20.583333,-103.86666700000001,1521,Jalisco,Cocula,14,
B14017,EL SALITRE,20.533332999999999,-103.86666700000001,1606,Jalisco,Atotonilco el Alto,14,
B14018,SAN MARTIN HIDALGO,20.441666999999999,-103.941667,1373,Jalisco,Zacoalco de Torres,14,
B14020,SAN JUANITO,20.800000000000001,-104.00833299999999,0,Jalisco,San Juanito de Escobedo,14,
B14025,LA VEGA 2,20.591667000000001,-103.84999999999999,1480,Jalisco,Teuchitlán,14,
B14027,LAS GAVIOTAS,19.616667,-104.45,450,Jalisco,Casimiro Castillo,14,
B14028,LAS GAVIOTAS,19.233332999999998,-104.566667,13,Jalisco,Cihuatlán,14,
B14029,CORRINCHIS 2,20.475000000000001,-104.77500000000001,2126,Jalisco,Concepción de Buenos Aires,14,
B14030,KM. 0 +490,20.5,-104.75,0,Jalisco,Mascota,14,
B14031,EL RODEO,20.251667000000001,-104.58750000000001,1320,Jalisco,Ayutla,14,
B15001,CIHUATLAN,19.241667,-104.566667,10,Jalisco,Cihuatlán,15,
B15002,EL CHIFLON,19.627777999999999,-104.555278,490,Jalisco,Casimiro Castillo,15,
B15008,CIHUATLAN,19.233332999999998,-104.566667,10,Jalisco,Cihuatlán,15,
B15009,LA ZOPILOTA,19.600000000000001,-104.49166700000001,405,Jalisco,Casimiro Castillo,15,
B15010,TECOMATES,19.558333000000001,-104.5,405,Jalisco,Casimiro Castillo,15,
B15011,CIHUATLAN,19.25,-104.566667,10,Jalisco,Cihuatlán,15,
B15020,KM. 5 +596,20.016389,-105.2,0,Jalisco,Tomatlán,15,
B16020,EL NOGAL,19.891667000000002,-103.8,1828,Jalisco,Tapalpa,16,
B16031,CANOAS,19.524999999999999,-103.88333299999999,760,Jalisco,Tolimán,16,
B16055,EL GUAYABO,19.016389,-103.383056,1820,Jalisco,Pihuamo,16,
B18129,LOS GRANJENOS,19.93,-102.879167,1805,Jalisco,Quitupan,18,
B18534,LOS OLIVOS,19.216388999999999,-102.883056,0,Jalisco,Jilotlán de los Dolores,18,
B12374,LA Y,19.406110999999999,-99.589444,2566,México,Otzolotepec,12,
B12377,OTZOLOTEPEC,19.399999999999999,-99.576389000000006,2568,México,Otzolotepec,12,
B12392,PUENTE MEXTEPEC,19.649999999999999,-99.941666999999995,2560,México,San Felipe del Progreso,12,
B12402,KM. 0 +262,19.659721999999999,-99.951943999999997,0,México,San Felipe del Progreso,12,
B12423,PUENTE ATLACOMULCO,19.788889000000001,-99.893056000000001,2496,México,Atlacomulco,12,
B12534,ATOTONILCO 2,19.452777999999999,-99.776388999999995,0,México,Almoloya de Juárez,12,
B12539,SAN BERNABE,19.472778000000002,-99.719999999999999,2571,México,Temoaya,12,
B12543,CALIXTLAHUACA,19.338889000000002,-99.6875,2635,México,Toluca,12,
B12568,EL TEJOCOTE,19.856110999999999,-99.910278000000005,2431,México,Atlacomulco,12,
B12574,LOS VELAZQUEZ,19.419443999999999,-99.866667000000007,2559,México,Villa Victoria,12,
B12578,PUENTE LOS VELASQUEZ,19.424167000000001,-99.868055999999996,2557,México,Villa Victoria,12,
B12581,SAN BARTOLO DEL LLANO,19.600000000000001,-99.709721999999999,2547,México,Jiquipilco,12,
B12592,SANTA MARIA DEL LLANO,19.633333,-99.722222000000002,2527,México,Ixtlahuaca,12,
B12655,ATOTONILCO I,19.443611000000001,-99.773611000000002,2570,México,Almoloya de Juárez,12,
B12729,TROJES,19.428332999999999,-99.611943999999994,2577,México,Temoaya,12,
B12741,LA LOMA,19.288333000000002,-99.556667000000004,2570,México,Lerma,12,
B12751,TLACOPA NUMERO 1,19.317499999999999,-99.633332999999993,2600,México,Toluca,12,
B12752,TLACOPA NUMERO 2,19.317499999999999,-99.633332999999993,2600,México,Toluca,12,
B12753,TLACOPA NUMERO 3,19.317499999999999,-93.633332999999993,2600,México,Toluca,12,
B12789,PRESA SALAZAR SALIDAS,19.305,-99.390556000000004,2989,México,Ocoyoacac,12,
B12926,IXTLAHUACA,19.567499999999999,-99.769443999999993,2544,México,Ixtlahuaca,12,
B12928,TRES BARRANCAS,19.333333,-99.799999999999997,0,México,Almoloya de Juárez,12,
B18291,A-10 TEXCALTITLAN,18.929167,-99.941666999999995,1347,México,Almoloya de Alquisiras,18,
B18294,A-8 TOTOLMAJAC,18.933333000000001,-99.683333000000005,2070,México,Villa Guerrero,18,
B18295,A-9 EL MOLINO,18.916667,-99.820832999999993,2090,México,Coatepec Harinas,18,
B18372,COATEPEQUITO,18.741667,-99.566666999999995,1550,México,Zumpahuacán,18,
B18521,PRESA VALLE DE BRAVO,19.207778000000001,-100.18083300000001,0,México,Valle de Bravo,18,
B18540,TEMASCALTEPEC,19.037777999999999,-100.065833,1700,México,Temascaltepec,18,
B18554,EL MIRADOR,18.806111000000001,-99.766666999999998,1720,México,Coatepec Harinas,18,
B18556,MEYUCA,18.864722,-99.781666999999999,1850,México,Coatepec Harinas,18,
B26020,TAXHIE,20.225000000000001,-99.900000000000006,2220,México,Aculco,26,
B26032,MOLINO BLANCO,19.477499999999999,-99.220832999999999,2326,México,Naucalpan de Juárez,26,
B26039,KM. 6 + 250  ( ANTES KM. 6 + 500 ),19.476666999999999,-99.091389000000007,0,México,Nezahualcóyotl,26,
B26054,SAN JUAN IXHUATEPEC,19.520833,-99.118611000000001,2240,México,Tlalnepantla de Baz,26,
B26057,TOTOLICA,19.465278000000001,-99.244444000000001,2325,México,Naucalpan de Juárez,26,
B26170,SAN ILDEFONSO,20.208333,-99.966667000000001,0,México,Aculco,26,
B26183,CHAPINGO,19.485278000000001,-98.884721999999996,2250,México,Texcoco,26,
B26184,SAN ANDRES,19.529167000000001,-98.912499999999994,2268,México,Texcoco,26,
B26193,LA GRANDE,19.579167000000002,-98.916667000000004,0,México,Tezoyuca,26,
B26194,TEPEXPAN,19.611388999999999,-98.920277999999996,0,México,Acolman,26,
B26257,CALACOAYA,19.525832999999999,-99.250556000000003,0,México,Tlalnepantla de Baz,26,
B26274,SAN MATEO,19.476944,-98.877778000000006,0,México,Texcoco,26,
B26298,PRESA GUADALUPE,19.633333,-99.25,2290,México,Cuautitlán Izcalli,,
B26309,SAN LUIS AMECA 2,19.183889000000001,-99.870000000000005,0,México,Temamatla,26,
B26313,KM. 27 + 250  ( ANTES KM. 27 + 000 ),19.641389,-99.053611000000004,2250,México,Ecatepec de Morelos,26,
B26320,TEPETITLAN,20.161110999999998,-99.359722000000005,2584,México,San Felipe del Progreso,26,
B26346,PUENTE COLGANTE,19.763888999999999,-99.185000000000002,0,México,Teoloyucan,26,
B26352,LAS ARBOLEDAS,19.562778000000002,-99.215833000000003,2280,México,Atizapán de Zaragoza,26,
B26354,SAN LORENZO,19.712499999999999,-99.195832999999993,0,México,Cuautitlán,26,
B26357,SAN MARTIN KM. 13 +521,19.616667,-99.191666999999995,2253,México,Cuautitlán Izcalli,26,
B26439,CALACOAYA 3,19.524999999999999,-99.255278000000004,0,México,Tlalnepantla de Baz,26,
B26442,Santa Cruz,19.504166999999999,-99.221666999999997,0,México,Tlalnepantla de Baz,26,
B26457,PRESA ITURBIDE,19.529167000000001,-99.465000000000003,0,México,Isidro Fabela,26,
B26520,SAN ANDRES ATENCO,19.530556000000001,-98.910278000000005,0,México,Texcoco,26,
B26984,CALACOAYA 2,19.449999999999999,-99.241667000000007,0,México,Tlalnepantla de Baz,26,
B27011,SAN NICOLAS,20.013888999999999,-97.916667000000004,0,México,Axapusco,27,
B27075,SAN JOAQUIN,19.815000000000001,-97.123333000000002,0,México,Naucalpan de Juárez,26,
B12014,PASARELA VILLA JIMENEZ,19.916667,-101.745833,1971,Michoacán de Ocampo,Jiménez,12,
B12034,MARAVATIO,20.198333000000002,-100.904167,2024,Michoacán de Ocampo,Maravatío,12,
B12093,ZINZIMEO,19.870833000000001,-100.976389,0,Michoacán de Ocampo,Tzitzio,12,
B12095,YURECUARO,20.341667000000001,-102.270833,1537,Michoacán de Ocampo,Yurécuaro,12,
B12209,EL TAMBOR,19.994444000000001,-100.2375,0,Michoacán de Ocampo,Contepec,12,
B12219,COINTZIO,19.641667000000002,-101.25833299999999,2096,Michoacán de Ocampo,Morelia,12,
B12221,ATAPANEO,19.725000000000001,-101.176389,0,Michoacán de Ocampo,Morelia,12,
B12233,CORRALES,20.195833,-101.80416700000001,1693,Michoacán de Ocampo,Penjamillo,12,
B12277,SAN BARTOLO,19.815277999999999,-101.011111,1858,Michoacán de Ocampo,Álvaro Obregón,12,
B12283,ZACAPENDO,19.815277999999999,-101.004167,1858,Michoacán de Ocampo,Indaparapeo,12,
B12310,LA ESTANZUELA,20.116667,-102.370833,1551,Michoacán de Ocampo,Ixtlán,12,
B12312,COINTZIO,19.637499999999999,-101.256944,1884,Michoacán de Ocampo,Morelia,12,
B12314,QUERENDARO,19.811667,-100.889444,1862,Michoacán de Ocampo,Queréndaro,12,
B12328,GUARACHA,19.958333,-102.579167,0,Michoacán de Ocampo,Jiquilpan,12,
B12338,SAN ANTONIO GUARACHA,19.945833,-102.558333,0,Michoacán de Ocampo,Villamar,12,
B12341,SALIDA TUNEL,19.633333,-101.25916700000001,1956,Michoacán de Ocampo,Morelia,12,
B12344,PLATANAL,19.941666999999999,-102.25833299999999,1586,Michoacán de Ocampo,Tangancícuaro,12,
B12365,EL SALTO,19.637499999999999,-101.259722,1955,Michoacán de Ocampo,Morelia,12,
B12379,JACONA,19.983332999999998,-102.30416700000001,0,Michoacán de Ocampo,Zamora,12,
B12390,CAMECUARO,19.916667,-102.21250000000001,93,Michoacán de Ocampo,Tangancícuaro,12,
B12395,UREPETIRO,19.975000000000001,-102.1375,1807,Michoacán de Ocampo,Tlazazalca,12,
B12397,CAMECUARO,19.916667,-102.216667,0,Michoacán de Ocampo,Tangancícuaro,12,
B12408,EL AGUILA,19.979167,-102.25833299999999,0,Michoacán de Ocampo,Zamora,12,
B12409,CHAPARACO,19.970832999999999,-102.266667,1632,Michoacán de Ocampo,Zamora,12,
B12412,JARIPO,19.958333,-102.59999999999999,0,Michoacán de Ocampo,Villamar,12,
B12439,ORANDINO 2,19.966667000000001,-102.329167,0,Michoacán de Ocampo,Jacona,12,
B12471,SAN CRISTOBAL,21.048611000000001,-103.443056,1561,Michoacán de Ocampo,Vista Hermosa,12,
B12494,PLANTA POTABILIZADORA,19.676389,-101.1875,0,Michoacán de Ocampo,Morelia,12,
B12511,ORANDINO,19.966667000000001,-102.325,1647,Michoacán de Ocampo,Jacona,12,
B12533,UREPETIRO 2,19.949999999999999,-102.154167,0,Michoacán de Ocampo,Tangancícuaro,12,
B12560,XOCONOLE,19.801943999999999,-101.00833299999999,0,Michoacán de Ocampo,Álvaro Obregón,12,
B12588,EL PLAN,19.819444000000001,-101.011111,1823,Michoacán de Ocampo,Álvaro Obregón,12,
B12609,UREPETIRO,19.949999999999999,-102.154167,0,Michoacán de Ocampo,Tangancícuaro,12,
B12664,EL GIGANTE,19.966667000000001,-100.45,1961,Michoacán de Ocampo,Maravatío,12,
B12710,YURÉCUARO 2,20.333333,-102.252222,1534,Michoacán de Ocampo,Yurécuaro,12,
B12712,EL ZAPOTE,20.336110999999999,-102.24888900000001,0,Michoacán de Ocampo,Yurécuaro,12,
B12713,ANGAMACUTIRO 2,20.137499999999999,-101.708333,0,Michoacán de Ocampo,Angamacutiro,12,
B12750,UREPETIRO,19.949999999999999,-102.154167,0,Michoacán de Ocampo,Tangancícuaro,12,
B12755,ANGAMACUTIRO 2,20.133333,-101.704167,0,Michoacán de Ocampo,Angamacutiro,12,
B12756,ANGAMACUTIRO 2,20.133333,-101.704167,0,Michoacán de Ocampo,Angamacutiro,12,
B12932,ZINZIMEO,19.825555999999999,-101.00833299999999,1858,Michoacán de Ocampo,Álvaro Obregón,12,
B16014,QUITO 2,19.524999999999999,-103.416667,1708,Michoacán de Ocampo,Tangancícuaro,16,
B16017,LAS CONCHAS,18.858332999999998,-103.641667,1694,Michoacán de Ocampo,José Sixto Verduzco,16,
B16024,EL CORCOVADO,19.841667000000001,-104.291667,1693,Michoacán de Ocampo,Penjamillo,16,
B16027,EL GRULLO,19.850000000000001,-104.283333,1831,Michoacán de Ocampo,Copándaro,16,
B16030,TACOTAN D. A.,20.033332999999999,-104.316667,1523,Michoacán de Ocampo,Briseñas,16,
B16033,EL ROSARIO,19.666667,-103.99166700000001,2415,Michoacán de Ocampo,Senguio,16,
B16040,LAS PIEDRAS,19.908332999999999,-104.075,1961,Michoacán de Ocampo,Maravatío,16,
B16050,PASO DEL RIO,18.958333,-103.95,1950,Michoacán de Ocampo,Huaniqueo,16,
B16052,JALA,19.921111,-100.862222,1830,Michoacán de Ocampo,Zinapécuaro,16,
B16057,CALLEJONES,18.833333,-103.619167,24,Michoacán de Ocampo,Coahuayana,16,
B16061,EL CORCOVADO,19.850833000000002,-104.283056,2078,Michoacán de Ocampo,Maravatío,16,
B18231,TIQUICHEO,18.901389000000002,-100.71388899999999,0,Michoacán de Ocampo,Tiquicheo de Nicolás Romero,18,
B18420,CORONDIRO,18.987500000000001,-102.12,0,Michoacán de Ocampo,Múgica,18,
B18421,CORONDIRO,18.987500000000001,-102.11666700000001,0,Michoacán de Ocampo,Múgica,18,
B18425,PARACUARO NUMERO 2,19.148610999999999,-102.219444,0,Michoacán de Ocampo,Parácuaro,18,
B18426,PARACUARO NUMERO 3,19.147221999999999,-102.226389,0,Michoacán de Ocampo,Parácuaro,18,
B18427,PARACUARO NUMERO 4,19.151667,-102.22499999999999,0,Michoacán de Ocampo,Parácuaro,18,
B18428,PARACUARO NUMERO 5,19.151389000000002,-102.22499999999999,0,Michoacán de Ocampo,Parácuaro,18,
B18429,PARACUARO NUMERO 6,19.151667,-102.22499999999999,0,Michoacán de Ocampo,Parácuaro,18,
B18454,ZICUIRAN,18.936111,-101.927778,288,Michoacán de Ocampo,La Huacana,18,
B18455,TAMACUARO,19.138888999999999,-101.99722199999999,0,Michoacán de Ocampo,Gabriel Zamora,18,
B18460,RIO CHIQUITO,19.573611,-100.46250000000001,0,Michoacán de Ocampo,Tuxpan,26,
B18471,KM. 4+200,19.524999999999999,-100.479167,0,Michoacán de Ocampo,Tuxpan,26,
B18487,LOS PINZANES,18.545832999999998,-101.118056,0,Michoacán de Ocampo,Huetamo,18,
B18494,LOS PANCHES,18.886111,-102.22666700000001,0,Michoacán de Ocampo,Aguililla,18,
B18495,LA PASTORIA,18.927778,-102.056944,0,Michoacán de Ocampo,La Huacana,18,
B18496,EL CARRIZO,19.036110999999998,-102.98611099999999,0,Michoacán de Ocampo,Tepalcatepec,18,
B18502,EL ZOPILOTE,19.206666999999999,-102.2,0,Michoacán de Ocampo,Parácuaro,18,
B18509,SANTA ANA,19.204999999999998,-102.583333,0,Michoacán de Ocampo,Buenavista,18,
B18511,ZIMANCA,19.141667000000002,-102.561111,0,Michoacán de Ocampo,Buenavista,18,
B18513,LAS BURRAS,19.156666999999999,-102.20694399999999,0,Michoacán de Ocampo,Parácuaro,18,
B18525,GUARANDICHO,19.134722,-102.455556,0,Michoacán de Ocampo,Buenavista,18,
B18527,PUNTA DE AGUA,19.098610999999998,-102.666667,0,Michoacán de Ocampo,Buenavista,18,
B18528,PUNTA DE AGUA,19.100833000000002,-102.663889,0,Michoacán de Ocampo,Buenavista,18,
B18532,CHORROS DEL VARAL,19.505555999999999,-102.58194399999999,0,Michoacán de Ocampo,Peribán,18,
B18591,PIEDRA CHINA,18.886666999999999,-100.76083300000001,0,Michoacán de Ocampo,Tiquicheo de Nicolás Romero,26,
B18592,EL MANGO,18.886666999999999,-100.72194399999999,0,Michoacán de Ocampo,Tiquicheo de Nicolás Romero,26,
B18089,EL RODEO 2,18.774999999999999,-99.333332999999996,1195,Morelos,Miacatlán,18,
B18174,SAN JOSE,18.808333000000001,-99.950000000000003,1301,Morelos,Cuautla,18,
B18175,OACALCO,18.904167000000001,-99.029167000000001,1363,Morelos,Xochitepec,18,
B18176,EL ZAPOTE,18.8125,-98.950000000000003,1302,Morelos,Cuautla,18,
B18177,EL ALMEAL,18.8125,-98.950000000000003,1302,Morelos,Cuautla,18,
B18192,AGUA DULCE,18.808333000000001,-98.933333000000005,1303,Morelos,Cuautla,18,
B18193,YAUTEPEC,18.895833,-99.049999999999997,1360,Morelos,Yautepec,18,
B18197,ITZAMATITLAN,18.904167000000001,-99.020832999999996,1365,Morelos,Yautepec,18,
B18199,OAXTEPEC,18.899999999999999,-98.966667000000001,1360,Morelos,Yautepec,18,
B18200,COCOYOC,18.899999999999999,-98.966667000000001,1360,Morelos,Yautepec,18,
B18204,TAZA GRANDE,18.837499999999999,-98.954166999999998,1300,Morelos,Cuautla,18,
B18219,PERRITOS NUMERO 2,18.779167000000001,-99.329166999999998,1200,Morelos,Miacatlán,18,
B18223,TICUMAN,18.791667,-99.104167000000004,1130,Morelos,Tlaltizapán de Zapata,18,
B18225,CUAUTLA,18.808333000000001,-99.950000000000003,1302,Morelos,Cuautla,18,
B18232,AMACUZAC,18.600000000000001,-99.370833000000005,900,Morelos,Amacuzac,18,
B18264,ZACATEPEC,18.649999999999999,-99.195832999999993,910,Morelos,Zacatepec,18,
B18269,ALPUYECA,18.733332999999998,-99.258332999999993,1050,Morelos,Xochitepec,18,
B18270,ALPUYECA,18.733332999999998,-99.258332999999993,1050,Morelos,Xochitepec,18,
B18271,TEMIXCO,18.854167,-99.220832999999999,1350,Morelos,Temixco,18,
B18272,TEMIXCO,18.850000000000001,-99.224999999999994,1348,Morelos,Temixco,18,
B18293,A-4 ALPANOCAN,18.875,-98.716667000000001,0,Morelos,Tetela del Volcán,18,
B18316,LA CUERA,18.683333000000001,-98.916667000000004,1300,Morelos,Ayala,18,
B18323,TETLAMA,18.833333,-99.279167000000001,1250,Morelos,Temixco,18,
B18358,LA CUERA,18.683333000000001,-98.916667000000004,1300,Morelos,Ayala,18,
B18437,XICATLACOTLA,18.520833,-99.191666999999995,1000,Morelos,Tlaquiltenango,18,
B18557,EL TUNEL,18.9375,-99.236110999999994,1558,Morelos,Cuernavaca,18,
B18558,ABASOLO,32.833333000000003,-116.453889,1550,Morelos,Cuernavaca,18,
B11012,SAN PEDRO,21.966667000000001,-105.15000000000001,0,Nayarit,Rosamorada,11,
B11014,ACAPONETA,22.483332999999998,-105.341667,52,Nayarit,Acaponeta,11,
B11030,EL BEJUCO,22.012499999999999,-105.15000000000001,13,Nayarit,Rosamorada,11,
B11035,LA BALLONA,22.533332999999999,-105.45,10,Nayarit,Acaponeta,11,
B11039,SAN PEDRO,21.987500000000001,-105.141667,15,Nayarit,Rosamorada,11,
B11046,ROSAMORADA,22.133333,-105.2,44,Nayarit,Rosamorada,11,
B11074,LA ESTANCIA,22.591667000000001,-105.341667,90,Nayarit,Huajicori,11,
B11075,PAJARITOS,22.377777999999999,-105.020833,245,Nayarit,Del Nayar,11,
B11082,CUCHARAS,22.350000000000001,-105.183333,0,Nayarit,Acaponeta,12,
B12470,HUAYNAMOTA,21.843056000000001,-104.711111,960,Nayarit,Del Nayar,12,
B12496,CAPOMAL,21.824999999999999,-105.118056,13,Nayarit,Santiago Ixcuintla,12,
B12514,EL CAIMAN,21.201388999999999,-104.080556,0,Nayarit,La Yesca,12,
B12516,MOLOLOA,21.502777999999999,-104.879167,620,Nayarit,Tepic,12,
B12556,CERRO BLANCO,21.414999999999999,-104.572778,1000,Nayarit,Santa María del Oro,12,
B12681,LOS SABINOS,21.941110999999999,-104.553889,1964,Nayarit,Del Nayar,12,
B12686,JESUS MARIA,22.250833,-104.516944,960,Nayarit,Del Nayar,12,
B12733,CHAPALAGANA,21.945,-104.508056,320,Nayarit,Del Nayar,12,
B12769,AMADO NERVO,21.730556,-105.03666699999999,0,Nayarit,Santiago Ixcuintla,12,
B13001,PASO DE AROCHA,21.283332999999999,-105.075,20,Nayarit,Compostela,13,
B14007,LAS GAVIOTAS 2,20.908332999999999,-105.125,50,Nayarit,Bahía de Banderas,14,
B14014,EL COLOMO,20.899999999999999,-105.11666700000001,50,Nayarit,Bahía de Banderas,14,
B24038,RODRIGUEZ,27.233332999999998,-100.13333299999999,210,Nuevo León,Anáhuac,24,
B24087,CIENEGA DE FLORES,25.954167000000002,-100.17361099999999,415,Nuevo León,Ciénega de Flores,24,
B24088,EL CUCHILLO,25.719443999999999,-99.258332999999993,210,Nuevo León,China,24,
B24192,MONTEMORELOS,25.179167,-99.833332999999996,375,Nuevo León,Montemorelos,24,
B24196,LOS HERRERAS,25.912500000000001,-99.351388999999998,240,Nuevo León,Los Herreras,24,
B24198,MONTERREY,25.670832999999998,-100.36666700000001,500,Nuevo León,Monterrey,24,
B24291,ICAMOLE,25.916667,-100.733333,640,Nuevo León,García,24,
B24301,TEPEHUAJE,25.495833000000001,-99.766666999999998,250,Nuevo León,Cadereyta Jiménez,24,
B24327,CADEREYTA,25.590278000000001,-99.974999999999994,330,Nuevo León,Cadereyta Jiménez,24,
B24330,RAICES,25.25,-100.02638899999999,1800,Nuevo León,Montemorelos,24,
B24333,SABINAS HIDALGO,26.491667,-100.11666700000001,280,Nuevo León,Sabinas Hidalgo,24,
B24351,LOS ALDAMAS,26.023610999999999,-99.195832999999993,90,Nuevo León,Doctor Coss,24,
B24385,CALLES (CONGREGACION),25.219999999999999,-99.939999999999998,440,Nuevo León,Montemorelos,24,
B24387,LOS LERMAS,25.68,-100.188333,445,Nuevo León,Guadalupe,24,
B24399,CANADA,25.801666999999998,-100.27166699999999,470,Nuevo León,General Escobedo,24,
B24504,SIERRA MORENA,26.536667000000001,-100.533333,500,Nuevo León,Bustamante,24,
B24506,LAS BRISAS,25.395833,-99.545556000000005,325,Nuevo León,General Terán,24,
B24509,LA BOCA,24.843889000000001,-98.158332999999999,460,Nuevo León,Santiago,24,
B25010,PABLILLO,24.856943999999999,-99.555555999999996,210,Nuevo León,Linares,25,
B25027,CAMACHO,24.877777999999999,-99.575000000000003,350,Nuevo León,Linares,25,
B25030,CABEZONES,24.990278,-99.741667000000007,390,Nuevo León,Montemorelos,25,
B25042,CERRO PRIETO,24.943055999999999,-99.383332999999993,270,Nuevo León,Linares,25,
B25044,PURISIMA DE CONCHOS,24.923611000000001,-99.256944000000004,210,Nuevo León,Linares,25,
B25093,LA PAMONA,24.992222000000002,-99.206666999999996,195,Nuevo León,Linares,25,
B25099,LA CARRERA,24.693888999999999,-99.667500000000004,350,Nuevo León,Linares,25,
B25102,BUENAVISTA,24.958611000000001,-99.329722000000004,235,Nuevo León,Linares,25,
B25103,EL POPOTE,24.900832999999999,-99.497500000000002,153,Nuevo León,Linares,25,
B25104,LAS ADJUNTAS,24.883333,-99.678332999999995,400,Nuevo León,Hualahuises,25,
B25120,EL POPOTE 2,24.898610999999999,-99.474999999999994,280,Nuevo León,Linares,25,
B26221,SAN RAFAEL,23.316666999999999,-99,1555,Nuevo León,Galeana,26,
B36041,SOMBRERETILLO,25.175000000000001,-103.341667,339,Nuevo León,Sabinas Hidalgo,36,
B18354,HUAJUAPAN DE LEON,18.683333000000001,-98.916667000000004,0,Oaxaca,Heroica Ciudad de Huajuapan de León,18,
B18453,EL MARQUEZ,19.069444000000001,-102.073611,98,Oaxaca,Santa María Jalapa del Marqués,18,
B20005,OAXACA,17.048611000000001,-96.729167000000004,1519,Oaxaca,San Antonio de la Cal,20,
B20016,QUETZALA,16.658332999999999,-98.506944000000004,50,Oaxaca,San Pedro Taviche,20,
B20021,IXTAYUTLA,16.558333000000001,-97.566666999999995,510,Oaxaca,Santiago Ixtayutla,20,
B20023,ZIMATLAN,16.870833000000001,-96.752778000000006,1501,Oaxaca,Zimatlán de Álvarez,20,
B20026,TLAPACOYAN,16.730556,-96.833332999999996,1465,Oaxaca,Santa Cruz Mixtepec,20,
B20027,OAXACA,17.027778000000001,-96.709721999999999,1515,Oaxaca,San Agustín de las Juntas,20,
B20032,LA VENTA,17.104167,-99.558333000000005,70,Oaxaca,Santo Domingo Ingenio,20,
B21004,ASTATA,16.009167000000001,-95.753889000000001,80,Oaxaca,San Pedro Huamelula,21,
B21005,COZOALTEPEC,15.789721999999999,-96.726388999999998,100,Oaxaca,Santa María Tonameca,21,
B21007,SAN ISIDRO,15.739167,-96.544721999999993,30,Oaxaca,Santa María Tonameca,21,
B22008,BOQUILLA NUMERO 1,16.647221999999999,-95.929167000000007,620,Oaxaca,Santa Ana Tavela,22,
B22015,TEQUISISTLAN,16.413889000000001,-95.597222000000002,170,Oaxaca,Magdalena Tequisistlán,22,
B22016,CHICAPA,16.570833,-94.808333000000005,35,Oaxaca,Santo Domingo Ingenio,22,
B22017,IXTEPEC,16.554167,-95.091667000000001,0,Oaxaca,Ciudad Ixtepec,22,
B22018,OSTUTA,16.5,-94.4375,35,Oaxaca,Santo Domingo Zanatepec,22,
B22026,ZANATEPEC,16.483332999999998,-94.366667000000007,35,Oaxaca,San Pedro Tapanatepec,22,
B22028,NILTEPEC,16.558333000000001,-94.608333000000002,46,Oaxaca,San Miguel Chimalapa,22,
B22030,LAS CUEVAS 2,16.425000000000001,-95.337500000000006,69,Oaxaca,Santa María Mixtequilla,22,
B22032,KM. 2 +400,16.370833000000001,-95.270832999999996,46,Oaxaca,Santa María Mixtequilla,22,
B22037,RIO HONDO,16.585277999999999,-95.481388999999993,164,Oaxaca,Santa María Jalapa del Marqués,22,
B28002,TUXTEPEC,18.083333,-96.133332999999993,21,Oaxaca,San Juan Bautista Tuxtepec,28,
B28056,JACATEPEC,17.866667,-96.200000000000003,42,Oaxaca,Santa María Jacatepec,28,
B28158,MARIA LOMBARDO,17.464444,-95.493888999999996,140,Oaxaca,Santiago Yaveo,28,
B10111,PIAXTLA,23.933333000000001,-106.425,1110,Puebla,Tehuitzingo,10,
B18148,ECHEVERRIA,18.970832999999999,-98.283332999999999,2075,Puebla,San Andrés Cholula,18,
B18153,BALCON DEL DIABLO,18.908332999999999,-98.095832999999999,2060,Puebla,Puebla,18,
B18237,PORTEZUELO,18.958333,-98.279167000000001,0,Puebla,Ocoyucan,18,
B18406,LAS ESTACAS,18.725000000000001,-99.112499999999997,1130,Puebla,La Magdalena Tlatlauquitepec,18,
B18434,EL FRAILE,18.179167,-98.391666999999998,0,Puebla,Axutla,18,
B26441,LOS REYES,19.362500000000001,-98.961111000000002,2260,Puebla,Huauchinango,26,
B27017,EL CARMEN,20.108332999999998,-98.079166999999998,2160,Puebla,Ahuazotepec,27,
B12558,EL BATAN,20.504166999999999,-100.416667,1881,Querétaro,Huimilpan,12,
B12605,TEMASCALES 2,20.0625,-100.15138899999999,2409,Querétaro,Amealco de Bonfil,12,
B26022,PASO DE TABLAS,20.550000000000001,-99.833332999999996,1860,Querétaro,El Marqués,26,
B26151,TEQUISQUIAPAN,20.524999999999999,-99.895832999999996,1912,Querétaro,Colón,26,
B26201,KM. 0 + 700,20.370833000000001,-100.004167,1945,Querétaro,Corregidora,26,
B26205,PASO DE TABLAS,20.550000000000001,-99.833332999999996,1880,Querétaro,Colón,26,
B26262,SAN JOSE,20.362500000000001,-100,1940,Querétaro,Cadereyta de Montes,26,
B26268,TANSABACA,21.651389000000002,-99.200000000000003,196,Querétaro,Jalpan de Serra,26,
B26414,SALIDAS PRESA CONSTITUCION 1917,20.420278,-100.087222,1925,Querétaro,Corregidora,26,
B26435,LA H 2,20.362500000000001,-100.079167,1940,Querétaro,Querétaro,26,
B26516,AMEALCO,19.526667,-99.160832999999997,2640,Querétaro,Amealco de Bonfil,26,
B27087,XALPANATL,20.018332999999998,-97.474999999999994,760,Querétaro,Jalpan de Serra,27,
B12023,REFORMA NUMERO 2,20.195833,-100.88333299999999,1764,San Luis Potosí,Villa de Guadalupe,12,
B25108,LA PRESA,22.238610999999999,-99.543333000000004,415,San Luis Potosí,Ciudad del Maíz,25,
B26023,AHUALULCO,22.949999999999999,-99.118055999999996,0,San Luis Potosí,Ahualulco,26,
B26224,TAMUIN,22.002222,-98.768332999999998,22,San Luis Potosí,Tamuín,26,
B26241,BALLESMI,21.734722000000001,-98.950000000000003,40,San Luis Potosí,Tanlajás,26,
B26243,REQUETEMU,21.418056,-98.883332999999993,82,San Luis Potosí,Axtla de Terrazas,26,
B26255,LAS ADJUNTAS,25.983332999999998,-98.566666999999995,18,San Luis Potosí,Tamuín,26,
B26263,SANTA ROSA,22.016667000000002,-99.049999999999997,82,San Luis Potosí,Axtla de Terrazas,26,
B26267,GALLINAS,21.934722000000001,-99.25,300,San Luis Potosí,Tamasopo,26,
B26270,TIERRA BLANCA,21.218056000000001,-98.884721999999996,155,San Luis Potosí,Tamazunchale,26,
B26272,EL PUJAL,21.834721999999999,-99.918056000000007,43,San Luis Potosí,Ciudad Valles,26,
B26285,MICOS,22.116806,-99.166667000000004,310,San Luis Potosí,Ciudad Valles,26,
B26291,TANCUILIN,21.384722,-98.868055999999996,100,San Luis Potosí,Axtla de Terrazas,26,
B26292,TANLACUT,21.668056,-99.284722000000002,100,San Luis Potosí,Santa Catarina,26,
B26293,TEMAMATLA,21.233471999999999,-98.750139000000004,125,San Luis Potosí,Tamazunchale,26,
B26341,OJO CALIENTE,21.850000000000001,-100.8,1790,San Luis Potosí,Santa María del Río,26,
B26389,VIGAS,21.784721999999999,-99.849999999999994,920,San Luis Potosí,Rioverde,26,
B26415,SAN VICENTE,21.689167000000001,-98.609166999999999,32,San Luis Potosí,San Vicente Tancuayalab,26,
B26430,AGUA BUENA,21.952500000000001,-99.379722000000001,372,San Luis Potosí,Tamasopo,26,
B26453,MEDIA LUNA,21.883333,-100.068056,1010,San Luis Potosí,Rioverde,26,
B10027,EL BLEDAL,24.804167,-107.145833,0,Sinaloa,Culiacán,10,
B10031,GUAMUCHIL,25.469443999999999,-108.091667,60,Sinaloa,Salvador Alvarado,10,
B10036,JAINA,25.899999999999999,-108.01388900000001,200,Sinaloa,Sinaloa,10,
B10037,HUITES,26.883333,-108.36666700000001,168,Sinaloa,Choix,10,
B10038,SAN BLAS,26.104167,-108.75,100,Sinaloa,El Fuerte,10,
B10040,SANTA CRUZ,24.484722000000001,-106.952778,0,Sinaloa,Cosalá,10,
B10065,IXPALINO,23.955556000000001,-106.595833,300,Sinaloa,San Ignacio,10,
B10070,ACATITAN,24.047222000000001,-106.654167,15,Sinaloa,San Ignacio,10,
B10077,PALO DULCE,27.016667000000002,-108.416667,400,Sinaloa,Choix,10,
B10079,BADIRAGUATO,25.333333,-107.53749999999999,280,Sinaloa,Badiraguato,10,
B10086,PERICOS,25.093056000000001,-107.694444,600,Sinaloa,Mocorito,10,
B10088,GUATENIPA,25.344443999999999,-107.22499999999999,290,Sinaloa,Badiraguato,10,
B10120,GUASAVE PUENTE CARRETERA,25.576667,-108.456667,30,Sinaloa,Guasave,10,
B10136,LA GUAGUANA,26.050000000000001,-107.84999999999999,350,Sinaloa,Sinaloa,10,
B10137,TECUSIAPA,25.855556,-107.376389,0,Sinaloa,Badiraguato,10,
B10143,COFRADIA,26.300000000000001,-108.3,400,Sinaloa,El Fuerte,10,
B10145,BACUBIRITO,25.816666999999999,-107.916667,280,Sinaloa,Sinaloa,10,
B11058,SIQUEROS,23.008333,-106.25,6,Sinaloa,Mazatlán,11,
B09002,NAVOJOA,27.104167,-109.438889,54,Sonora,Navojoa,9,
B09017,EL OREGANO,29.233332999999998,-110.704167,272,Sonora,Hermosillo,9,
B09022,HORNOS,27.741667,-109.90000000000001,50,Sonora,Cajeme,9,
B09027,HERMOSILLO,29.066666999999999,-110.916667,200,Sonora,Hermosillo,9,
B09032,CHICULI,27.75,-109.90000000000001,51,Sonora,Cajeme,9,
B09039,TESIA KM. 1 + 457,27.163889000000001,-109.36666700000001,50,Sonora,Navojoa,9,
B09068,TEZOCOMA,27.683333000000001,-109.233333,320,Sonora,Quiriego,9,
B09082,EL CUBIL,29.216667000000001,-109.233333,350,Sonora,Sahuaripa,9,
B09083,LA GUADALUPE,28.949999999999999,-108.708333,850,Sonora,Sahuaripa,9,
B09089,COCORAQUE,27.414999999999999,-109.628333,100,Sonora,Quiriego,9,
B09090,EL CAJON,29.472221999999999,-110.736389,390,Sonora,San Miguel de Horcasitas,9,
B10053,ALAMOS,26.393056000000001,-108.74166700000001,389,Sonora,Álamos,10,
B10098,CAZANATE,26.604167,-108.7625,137,Sonora,Álamos,10,
B30002,GAVIOTAS,17.966667000000001,-92.916667000000004,-2,Tabasco,Centro,30,
B30005,SAMARIA,17.979167,-93.291667000000004,19,Tabasco,Cárdenas,30,
B30006,EL MUELLE,17.990278,-92.916667000000004,6,Tabasco,Centro,30,
B30016,PUEBLO NUEVO,17.854167,-92.879166999999995,8,Tabasco,Centro,30,
B30019,BOCA DEL CERRO,17.433333000000001,-91.483333000000002,100,Tabasco,Tenosique,30,
B30031,PUYACATENGO,17.566666999999999,-92.9375,40,Tabasco,Teapa,30,
B30032,TEAPA,17.566666999999999,-92.966667000000001,72,Tabasco,Teapa,30,
B30055,MACUSPANA,17.766667000000002,-92.599999999999994,10,Tabasco,Macuspana,30,
B30062,GONZALEZ,17.975000000000001,-93,10,Tabasco,Centro,30,
B30083,LAS GAVIOTAS 2,17.966667000000001,-92.916667000000004,5,Tabasco,Centro,30,
B30088,SAN PEDRO TABASCO,17.791667,-91.158332999999999,36,Tabasco,Balancán,30,
B30093,TAPIJULAPA,17.466667000000001,-92.816666999999995,22,Tabasco,Tacotalpa,30,
B30111,OXOLOTAN,17.383333,-92.75,100,Tabasco,Tacotalpa,30,
B30159,EL PORVENIR,16.519444,-90.483333000000002,5,Tabasco,Centro,30,
B24225,JIMENEZ,27.141667000000002,-104.91805600000001,114,Tamaulipas,Jiménez,24,
B24323,RIO BRAVO CERCA DE BROWNSVILLE TEXAS Y MATAMOROS TAMAULIPAS,25.833333,-97.522778000000002,12,Tamaulipas,Matamoros,,
B25009,SAN FERNANDO,24.843889000000001,-98.158332999999999,0,Tamaulipas,Padilla,25,
B25012,EL BARRETAL,24.102499999999999,-99.215000000000003,226,Tamaulipas,Hidalgo,25,
B25015,PADILLA,24.012499999999999,-98.772221999999999,154,Tamaulipas,Padilla,25,
B25025,PILON,24.033332999999999,-98.729167000000004,0,Tamaulipas,Padilla,25,
B25033,LA SONADORA,23.961110999999999,-98.662499999999994,198,Tamaulipas,Padilla,25,
B25034,PUERTO DE VALLES,24.155556000000001,-99.595832999999999,555,Tamaulipas,Hidalgo,25,
B25040,MAGUEYES,24.569444000000001,-99.558333000000005,420,Tamaulipas,Mainero,25,
B25043,EL TOMASEÑO,24.251389,-99.436110999999997,0,Tamaulipas,Hidalgo,25,
B25064,EL NOGAL,24.5625,-99.554167000000007,420,Tamaulipas,Mainero,25,
B25089,VEGA NUMERO 3,23.949444,-98.469443999999996,70,Tamaulipas,Abasolo,25,
B25090,CRUZ,24.103055999999999,-99.213055999999995,226,Tamaulipas,Hidalgo,25,
B25098,MARIANO MATAMOROS,23.989166999999998,-98.484999999999999,60,Tamaulipas,Abasolo,25,
B25107,SAN JUAN VAQUERIA,25.115278,-99.036111000000005,160,Tamaulipas,Burgos,25,
B25110,EL SOMBRERITO,23.254999999999999,-97.989999999999995,90,Tamaulipas,Aldama,25,
B25111,REAL VIEJO,23.254999999999999,-97.989999999999995,90,Tamaulipas,Aldama,25,
B25112,SUBIDA ALTA,23.911110999999998,-99.113056,300,Tamaulipas,Güémez,25,
B25114,SOTO LA MARINA,23.767499999999998,-98.210832999999994,38,Tamaulipas,Soto la Marina,25,
B25116,ZAPATA,23.571389,-99.541944000000001,0,Tamaulipas,Jaumave,25,
B25117,EL CARMEN,24.066666999999999,-99.254166999999995,226,Tamaulipas,Hidalgo,25,
B25118,LA PEÑITA,23.699444,-99.193055999999999,360,Tamaulipas,Victoria,25,
B26124,JASSO,19.987500000000001,-99.323611,0,Tamaulipas,Aldama,26,
B26142,XICOTENCATL,22.968056000000001,-98.968056000000004,100,Tamaulipas,Xicoténcatl,26,
B26218,LA ENCANTADA,23.383333,-99.083332999999996,375,Tamaulipas,Llera,26,
B26249,MAGISCATZÍN 2,22.801389,-98.718056000000004,40,Tamaulipas,González,26,
B26280,LA SERVILLETA,22.850000000000001,-99.118055999999996,210,Tamaulipas,Ocampo,26,
B26283,CANAL BAJO,22.949999999999999,-99.133332999999993,82,Tamaulipas,Ocampo,26,
B26296,RIO FRIO,22.834721999999999,-99.018056000000001,60,Tamaulipas,Xicoténcatl,26,
B26388,SABINAS,23.034721999999999,-99.084721999999999,100,Tamaulipas,Gómez Farías,26,
B26416,TAMESI,22.426666999999998,-98.427499999999995,12,Tamaulipas,González,26,
B26447,SAN GABRIEL,23.083611000000001,-98.787222,140,Tamaulipas,Xicoténcatl,26,
B18005,SAN JACINTO,19.154167000000001,-98.241667000000007,0,Tlaxcala,Cuautlancingo,18,
B18135,PANOTLA,19.308333000000001,-98.262500000000003,2400,Tlaxcala,Chiautempan,18,
B18140,XICOTZINGO,19.166667,-98.25,0,Tlaxcala,Xicohtzinco,18,
B18322,TLAXCALA,19.320833,-98.241667000000007,2250,Tlaxcala,Tlaxcala,18,
B18324,ATLANGA KM. 0 +220,19.558333000000001,-98.195832999999993,2480,Tlaxcala,Atlangatepec,18,
B18325,ATLANGA KM. 0 +060,19.550000000000001,-98.200000000000003,2480,Tlaxcala,Atlangatepec,18,
B18349,HUAMANTLA,19.316666999999999,-97.854167000000004,2400,Tlaxcala,Huamantla,18,
B25069,MIRADORES,24.966667000000001,-99.780556000000004,1530,Veracruz de Ignacio de la Llave,Emiliano Zapata,25,
B26244,EL HIGO,21.763888999999999,-98.433333000000005,50,Veracruz de Ignacio de la Llave,El Higo,26,
B26248,TEMPOAL,21.533332999999999,-98.383332999999993,38,Veracruz de Ignacio de la Llave,Tempoal,26,
B26277,LOS HULES,21.166667,-98.266806000000003,75,Veracruz de Ignacio de la Llave,Chalma,26,
B26289,TERRERILLOS,21.033472,-98.133471999999998,106,Veracruz de Ignacio de la Llave,Chicontepec,26,
B26387,EL OLIVO,21.833472,-98.500139000000004,25,Veracruz de Ignacio de la Llave,Pánuco,26,
B26424,PANUCO,22.057500000000001,-98.170556000000005,10,Veracruz de Ignacio de la Llave,Pánuco,26,
B26433,PLATON SANCHEZ,21.293610999999999,-98.335278000000002,80,Veracruz de Ignacio de la Llave,Tantoyuca,26,
B27001,MARTINEZ DE LA TORRE,20.061667,-97.038332999999994,50,Veracruz de Ignacio de la Llave,Martínez de la Torre,27,
B27002,POZA RICA,20.546666999999999,-97.474999999999994,50,Veracruz de Ignacio de la Llave,Poza Rica de Hidalgo,27,
B27005,LIBERTAD,20.051666999999998,-96.961667000000006,50,Veracruz de Ignacio de la Llave,Misantla,27,
B27006,EL RAUDAL,20.158332999999999,-96.713333000000006,10,Veracruz de Ignacio de la Llave,Nautla,26,
B27007,VEGA DE ALATORRE,20.02,-96.628332999999998,10,Veracruz de Ignacio de la Llave,Vega de Alatorre,27,
B27009,SOMBRERETE,20.891943999999999,-97.805833000000007,48,Veracruz de Ignacio de la Llave,Álamo Temapache,27,
B27022,LAS ANIMAS,19.649999999999999,-97.181667000000004,1385,Veracruz de Ignacio de la Llave,Xalapa,27,
B27031,JALACINGO,19.863333000000001,-97.306667000000004,1950,Veracruz de Ignacio de la Llave,Jalacingo,27,
B27036,ALTOTONGA,19.815000000000001,-97.221666999999997,2085,Veracruz de Ignacio de la Llave,Altotonga,27,
B27060,RANCHO VIEJO,19.945,-97.336667000000006,900,Veracruz de Ignacio de la Llave,Emiliano Zapata,28,
B28001,SAN JUAN EVANGELISTA,17.883056,-95.133055999999996,29,Veracruz de Ignacio de la Llave,San Juan Evangelista,28,
B28003,CARDEL,19.361667000000001,-96.373333000000002,28,Veracruz de Ignacio de la Llave,La Antigua,28,
B28013,AZUETA,18.083333,-95.716667000000001,14,Veracruz de Ignacio de la Llave,José Azueta,28,
B28014,PAPALOAPAN,18.149722000000001,-96.083055999999999,14,Veracruz de Ignacio de la Llave,Cosamaloapan de Carpio,28,
B28015,CUATOTOLAPAN,18.050000000000001,-96.533056000000002,14,Veracruz de Ignacio de la Llave,Hueyapan de Ocampo,28,
B28025,LAUCHAPAN,18.25,-95.349722,13,Veracruz de Ignacio de la Llave,San Andrés Tuxtla,28,
B28030,ACTOPAN,19.494444000000001,-96.578333000000001,183,Veracruz de Ignacio de la Llave,Emiliano Zapata,28,
B28039,PASO DEL TORO,19.041667,-96.140000000000001,8,Veracruz de Ignacio de la Llave,Medellín de Bravo,28,
B28040,EL TEJAR,19.068332999999999,-96.159999999999997,10,Veracruz de Ignacio de la Llave,Medellín de Bravo,28,
B28064,SANTO DOMINGO,18.050000000000001,-95.549999999999997,95,Veracruz de Ignacio de la Llave,Isla,28,
B28069,CAPULINES,18.864999999999998,-96.305000000000007,18,Veracruz de Ignacio de la Llave,Cotaxtla,28,
B28081,ANGEL R. CABADAS,18.583055999999999,-95.4375,19,Veracruz de Ignacio de la Llave,Angel R. Cabada,28,
B28105,KM. 0 +200,19.481110999999999,-96.549999999999997,146,Veracruz de Ignacio de la Llave,Actopan,28,
B28108,EL NARANJILLO,19.422222000000001,-96.381666999999993,13,Veracruz de Ignacio de la Llave,Ursulo Galván,28,
B28111,IDOLOS,19.403333,-96.553332999999995,100,Veracruz de Ignacio de la Llave,Actopan,28,
B28112,AYOTLA,18.738889,-96.455556000000001,91,Veracruz de Ignacio de la Llave,Tierra Blanca,28,
B28119,SANTA ANITA,18.914999999999999,-96.821667000000005,568,Veracruz de Ignacio de la Llave,Atoyac,28,
B28122,CAMELPO,18.738610999999999,-96.455278000000007,94,Veracruz de Ignacio de la Llave,Cotaxtla,28,
B28125,CARRIZAL,19.32,-96.626666999999998,250,Veracruz de Ignacio de la Llave,Apazapan,28,
B28130,ACTOPAN,19.495000000000001,-96.587500000000006,310,Veracruz de Ignacio de la Llave,Actopan,27,
B28135,CHACALTIANGUIS,18.340278000000001,-95.836111000000002,8,Veracruz de Ignacio de la Llave,Cosamaloapan de Carpio,28,
B28136,GARRO,18.270555999999999,-95.556667000000004,20,Veracruz de Ignacio de la Llave,Isla,28,
B28143,SAN JOSE CHILAPA,17.800000000000001,-95.855556000000007,40,Veracruz de Ignacio de la Llave,Playa Vicente,27,
B28145,CEDILLO,17.25,-94.612222000000003,100,Veracruz de Ignacio de la Llave,Uxpanapa,29,
B28153,LA CEIBILLA,18.287500000000001,-95.435833000000002,36,Veracruz de Ignacio de la Llave,San Andrés Tuxtla,28,
B28154,LA LANA,17.556667000000001,-95.587500000000006,65,Veracruz de Ignacio de la Llave,Santiago Sochiapan,28,
B28156,SIHUAPAN,18.449999999999999,-95.183055999999993,300,Veracruz de Ignacio de la Llave,San Andrés Tuxtla,28,
B29005,LAS PERLAS,17.438056,-94.866667000000007,0,Veracruz de Ignacio de la Llave,Jesús Carranza,29,
B29006,JESUS CARRANZA 2,17.391667000000002,-95.054167000000007,22,Veracruz de Ignacio de la Llave,Jesús Carranza,29,
B29008,TIERRA MORADA,17.571667000000001,-94.163055999999997,10,Veracruz de Ignacio de la Llave,Minatitlán,29,
B29009,MINZAPAN,18.16,-94.788888999999998,245,Veracruz de Ignacio de la Llave,Acayucan,29,
B29016,CEDILLO,17.25,-94.612499999999997,100,Veracruz de Ignacio de la Llave,Uxpanapa,29,
B12484,EL PLATANITO,22.568055999999999,-104.063056,0,Zacatecas,Valparaíso,12,
B12487,LA FLORIDA,22.686388999999998,-103.603611,1870,Zacatecas,Valparaíso,12,
B12488,LA GLORIA,22.068055999999999,-103.396389,1465,Zacatecas,Valparaíso,12,
B12602,BOCA DEL TESORERO,22.825278000000001,-102.957778,2166,Zacatecas,Jerez,12,
B12615,PALOMAS (SALIDAS PRESA PALOMAS),22.344999999999999,-102.806944,2089,Zacatecas,Villanueva,12,
B12768,RANCHO DE ENMEDIO,22.562221999999998,-103.58888899999999,0,Zacatecas,Monte Escobedo,12,
B12771,VICENTE GUERRERO,22.315833000000001,-103.439722,1925,Zacatecas,Monte Escobedo,12,
B12792,ARELLANOS,21.766943999999999,-102.968611,1495,Zacatecas,Huanusco,12,
B12941,CUIXTLA,21.616667,-103.438889,1816,Zacatecas,Tepechitlán,12,
B14026,LA CALERA,22.5,-103.34999999999999,1825,Zacatecas,Monte Escobedo,14,
B36048,SANTA ROSA,22.916667,-103.108333,2240,Zacatecas,Fresnillo,36,
B36080,SAN FRANCISCO,24.313889,-102.88500000000001,1681,Zacatecas,General Francisco R. Murguía,36,
B006ABR,ABELARDO RODRIGUEZ,21.916667,-102.42694400000001,0,Aguascalientes,Jesús María,12,
B055CLL,PRESA CALLES,22.142222,-102.415556,2020,Aguascalientes,San José de Gracia,12,
B062CTA,CINCUENTA ANIVERSARIO,22.188611000000002,-102.466944,2050,Aguascalientes,San José de Gracia,12,
B110NIA,PRESA EL NIAGARA,21.778888999999999,-102.441389,1828,Aguascalientes,Aguascalientes,12,
B233CDZ,LA CODORNIZ,21.995556000000001,-102.674722,1783,Aguascalientes,Calvillo,12,
B321MLU,MEDIA LUNA,21.7925,-102.80166699999999,1585,Aguascalientes,Calvillo,12,
B332PBL,PRESA PABELLON,22.162500000000001,-102.291944,1909,Aguascalientes,Pabellón de Arteaga,,
B370RDG,PRESA RODRIGUEZ,21.916667,-102.42694400000001,0,Aguascalientes,Jesús María,12,
B552JCO,JOCOQUE,22.121110999999999,-102.354444,1970,Aguascalientes,San José de Gracia,12,
B005ALR,ABELARDO L. RODRIGUEZ,32.446944000000002,-116.905833,120,Baja California,Tijuana,9,
B144ELZ,EMILIO LOPEZ ZAMORA,31.104167,-116.168333,70,Baja California,Ensenada,2,
B535ECZ,EL CARRIZO,32.483333000000002,-116.7,495,Baja California,Tecate,1,
B515CHE,PRESA CHICOASEN,16.933333000000001,-93.099999999999994,710,Chiapas,Osumacinta,30,
B010AGZ,ABRAHAM GONZALEZ,28.516667000000002,-107.63333299999999,2220,Chihuahua,Guerrero,9,
B060CHH,PRESA CHIHUAHUA,28.569721999999999,-106.166389,1900,Chihuahua,Chihuahua,24,
B120PRR,PRESA EL PARRAL,26.899999999999999,-105.7,1776,Chihuahua,Hidalgo del Parral,24,
B130REJ,PRESA EL REJON,28.610555999999999,-106.109722,1480,Chihuahua,Chihuahua,24,
B140TIN,EL TINTERO,29.5625,-107.397222,1725,Chihuahua,Buenaventura,34,
B155FIM,FRANCISCO I. MADERO,28.165278000000001,-105.625,1220,Chihuahua,Rosales,24,
B225BOQ,LA BOQUILLA,27.539444,-105.391667,1268,Chihuahua,San Francisco de Conchos,24,
B280LAJ,PRESA LAS LAJAS,29.941666999999999,-106.977222,1570,Chihuahua,Buenaventura,34,
B300LLL,LUIS L. LEON,28.983611,-105.280556,1055,Chihuahua,Aldama,24,
B041AMI,LA AMISTAD,29.444167,-101.06,350,Coahuila de Zaragoza,Acuña,,
B255LAM,LAGUNA DE AMELA,18.899999999999999,-103.86666700000001,20,Colima,Tecomán,16,
B336PTS,ANGEL ALBINO CORZO (PEÑITAS),19.266667000000002,-103.816667,450,Colima,Villa de Álvarez,,
B165FVL,FRANCISCO VILLA,24.001667000000001,-103.960278,1961,Durango,Poanas,11,
B170FZA,FRANCISCO ZARCO,25.273610999999999,-103.776667,1200,Durango,Lerdo,36,
B285LCR,LAZARO CARDENAS,25.614443999999999,-105.00361100000001,1600,Durango,Indé,36,
B335PAG,PEÑA DEL AGUILA,24.237221999999999,-104.655556,1896,Durango,Durango,11,
B397SEL,SANTA ELENA,23.623332999999999,-104.054444,2480,Durango,Súchil,11,
B407SBY,SANTIAGO BAYACORA,23.873332999999999,-104.673889,0,Durango,Durango,11,
B416VIH,VILLA HIDALGO,26.100000000000001,-104.5,1750,Durango,Mapimí,35,
B600NAR,LOS NARANJOS,24.625,-103.305556,1650,Durango,General Simón Bolívar,,
B115PAT,EL PALOTE,21.166667,-101.666667,1856,Guanajuato,León,12,
B190IAL,IGNACIO ALLENDE,20.833333,-100.816667,1820,Guanajuato,San Miguel de Allende,12,
B270LYU,LAGUNA DE YURIRIA,20.216667000000001,-101.13333299999999,1736,Guanajuato,Yuriria,12,
B315MAZ,PRESA INSURGENTE MARIANO ABASOLO,20.5,-101.95,1740,Guanajuato,Pénjamo,12,
B340PEN,PEÑUELITAS,21.104444000000001,-100.875833,1915,Guanajuato,Dolores Hidalgo Cuna de la Independencia Nacional,12,
B410SOL,PRESA SOLIS,20.050000000000001,-100.816667,1849,Guanajuato,Acámbaro,12,
B580PSA,PRESA LA PURISIMA,20.850000000000001,-101.283333,1839,Guanajuato,Guanajuato,12,
B455VTR,PRESA VALERIO TRUJANO,18.416667,-99.5,0,Guerrero,Buenavista de Cuéllar,18,
B145END,PRESA ENDO,20.163889000000001,-99.359999999999999,2048,Hidalgo,Tepetitlán,26,
B212JRG,JAVIER ROJO GOMEZ,20.733332999999998,-99.333332999999996,0,Hidalgo,Zimapán,26,
B235ESP,PRESA LA ESPERANZA,20.058889000000001,-98.336111000000002,2210,Hidalgo,Cuautepec de Hinojosa,26,
B465VAG,VICENTE AGUIRRE,20.439444000000002,-99.377778000000006,0,Hidalgo,Alfajayucan,26,
B015ACH,ACHIMEC,22.325832999999999,-103.22583299999999,1850,Jalisco,Huejúcar,12,
B043ANG,LA ANGOSTURA,19.912500000000001,-104.056944,0,Jalisco,El Limón,30,
